school_name,unique_id,date,sentences,roberta_compound,place,latitude,longitude,revised_place,revised_latitude,revised_longitude,place_type,false_positive,checked_by
GMU,GMU_43,2025-01-24 08:21:08,"From other countries’ cultures and people to the military’s own social structures (enlisted and commissioned kids had very different backgrounds but we all went to the same schools), when I landed in America for college I was shocked at the de facto economic and racial segregation in our country.",-0.5208045840263367,United States,39.76,-98.5,,,,,,
GMU,GMU_77,2025-01-24 01:20:39,"Around 40% of US employees are hybrid or WFH - same as the federal government, doofus",-0.22959855198860168,United States,39.76,-98.5,,,,,,
GMU,GMU_79,2025-01-24 00:49:14,"I work in the Student DEI office at George Mason, it’s literally just supporting people from different back ground.",0.31885796785354614,George Mason University Fairfax Campus,38.83088,-77.30794,,,,,,
GMU,GMU_80,2025-01-24 00:49:14,I work there because I am a first generation student with high school drop out parents from rural Virginia who didn’t know the first thing about college.,-0.3816240727901459,Virginia,37.54812,-77.44675,,,,,,
GMU,GMU_96,2025-01-24 20:41:36,Like why are white men overrepresented in congress versus the actual US population?,-0.5380246043205261,United States,39.76,-98.5,,,,,,
GMU,GMU_130,2025-02-15 04:44:26,Is this in the USA?,-0.008218124508857727,United States,39.76,-98.5,,,,,,
GMU,GMU_159,2023-02-22 12:32:26,Pretty sure this girl I used to talk to worked in Crystal City and had to pay for parking.. not the first time I’ve heard of it either.,-0.10919331014156342,Crystal City,28.67748,-99.82811,,,,,,
GMU,GMU_164,2023-02-22 21:22:07,A lot of people go to GMU and there isn't exactly a lot of land to go around in the DC area.,-0.10538993775844574,District of Columbia,38.91706,-77.00025,,,,,,
GMU,GMU_168,2023-02-22 21:10:41,The other big joke is the gates they installed in Rapp deck.,-0.4946540892124176,Rapp,47.3961,7.84103,,,,,,
GMU,GMU_175,2023-02-22 11:27:36,"I'm going to get mass downvoted for this, but parking costs money to maintain and America has coddled drivers to make them think they are entitled to a parking spot for owning a car.",-0.7710381150245667,United States,39.76,-98.5,,,,,,
GMU,GMU_184,2023-02-22 12:14:20,"Based, bring this to osu",0.06565248221158981,Ōzu,33.5,132.55,,,,,,
GMU,GMU_229,2024-09-25 12:05:43,[gif](giphy|10bCgkbPzuKQog) There is definitely a dolphins-taking-over-Springfield vibe here.,0.5382881164550781,Springfield,42.10148,-72.58981,,,,,,
GMU,GMU_286,2022-12-07 16:25:44,The Southside one got me,0.11531459540128708,Southside,39.78121,-76.39468,,,,,,
GMU,GMU_296,2022-12-09 03:53:40,I can't help but feel like the Rappahannock parking deck one is targeted toward me...,-0.6310790777206421,Rappahannock County,38.68471,-78.15925,,,,,,
GMU,GMU_307,2022-12-07 01:40:13,I-66  are you from Cali?,-0.0015263461973518133,Chali,40.88208,44.10553,,,,,,
GMU,GMU_310,2023-03-29 22:26:44,"As an employee, the I-66 part got me.",0.009250323288142681,Super 8 Manassas / I- 66,38.7993,-77.5212,,,,,,
GMU,GMU_343,2025-10-01 17:55:40,"But gooning is Ohio so get on God.""",0.004971555434167385,Ohio,40.25034,-83.00018,,,,,,
GMU,GMU_355,2025-10-03 21:19:42,He’s the Iglesias Pentacostal Church Vans you see around Fairfax and Springfield,0.004028990399092436,Fairfax,40.33861,-95.39331,,,,,,
GMU,GMU_355,2025-10-03 21:19:42,He’s the Iglesias Pentacostal Church Vans you see around Fairfax and Springfield,0.004028990399092436,Springfield,42.10148,-72.58981,,,,,,
GMU,GMU_363,2025-10-02 03:16:22,tell me you're not from nova from without telling me,-0.15023936331272125,Nova,65.65053,12.65206,,,,,,
GMU,GMU_383,2025-10-03 11:03:01,"Pastor Jorge and Sister Cindy (""Ho No Mo"") -- a slut shamer, have free reign to minister on college campuses paid for with Virginia tax dollars... GMU is a state school, not a private one.",-0.13178156316280365,Virginia,37.54812,-77.44675,,,,,,
GMU,GMU_385,2025-10-03 11:03:01,"They are not employed by the school, or the state of Virginia and they are not students!",-0.8169208765029907,Virginia,37.54812,-77.44675,,,,,,
GMU,GMU_388,2020-04-03 22:25:47,Dolphins have returned to Mason Pond,0.010499384254217148,Mason Pond,41.64506,-72.80084,,,,,,
GMU,GMU_406,2020-04-04 00:33:40,Mason Pond is clearly manmade.,-0.5305525660514832,Mason Pond,41.64506,-72.80084,,,,,,
GMU,GMU_448,2023-10-19 21:54:17,"Run over to Giant for some raw calamari rings, and hand pieces to them.",0.00470708915963769,Giant,37.99048,-122.35719,,,,,,
GMU,GMU_497,2025-02-12 01:59:17,"The snow ball fights are so fun, I wasn’t in this particular one, but I was in a few snow ball fights close to Southside and The Ridge.",0.9362920522689819,Southside,39.78121,-76.39468,,,,,,
GMU,GMU_497,2025-02-12 01:59:17,"The snow ball fights are so fun, I wasn’t in this particular one, but I was in a few snow ball fights close to Southside and The Ridge.",0.9362920522689819,The Ridge,44.13342,-76.4327,,,,,,
GMU,GMU_500,2025-02-12 15:11:57,"We had a snowball fight in the commons outside Dickenson hall, too.",0.03991274535655975,Dickenson Hall,38.83167,-77.30472,,,,,,
GMU,GMU_509,2025-02-13 18:40:58,Is that Presidents Park?,-0.0027588121592998505,Presidents Park,38.89562,-77.03651,,,,,,
GMU,GMU_519,2023-11-16 23:16:24,They stopped at the stop sign near Lot A and I was crossing then all of a sudden they drive directly at me then stop right in front of me and there’s two girls just laughing at me then they drive off.,-0.08970385044813156,Altamaha River,31.31578,-81.28482,,,,,,
GMU,GMU_643,2025-02-15 10:40:51,The amount of social climbers at Mason is absurd.,-0.3038853108882904,Mason County,43.95625,-86.42258,,,,,,
GMU,GMU_700,2025-03-06 11:11:24,Graffiti at exploratory this morning,-0.14500831067562103,Miles Exploratory Learning Center,32.22101,-110.95023,,,,,,
GMU,GMU_726,2025-03-12 21:26:37,The Virginia flag goes so hard.,-0.33828336000442505,Virginia,37.54812,-77.44675,,,,,,
GMU,GMU_744,2025-03-07 16:33:43,Unless that is your building u r defacing then u should be arrested for vandalism I saw the same thing in cali 4 yrs ago PS If u vandalized i hope this post is used as evidence of a crime.,-0.8500933051109314,Derbent,42.06622,48.28759,,,,,,
GMU,GMU_764,2025-03-06 20:17:23,I think they meant president of the United States.,-0.06271176785230637,Territories of the United States,35.27766,-102.35403,,,,,,
GMU,GMU_794,2020-10-15 11:29:10,Only picture where GMU actually looks nice ...nice job!,0.9309141635894775,Gauriyamau,26.75703,81.79366,,,,,,
GMU,GMU_806,2020-10-15 11:17:19,"You can see the through the end of the first pic, that’s the whole new glass building constructed beside the Fenwick!",0.14294160902500153,Fenwick,41.27093,-72.35369,,,,,,
GMU,GMU_864,2025-09-06 16:31:10,what did washington do?,-0.01872223988175392,Washington,47.50012,-120.50147,,,,,,
GMU,GMU_875,2025-09-10 07:44:38,That's the governor that will turn Md into the next California,0.11331909149885178,Maryland,39.00039,-76.74997,,,,,,
GMU,GMU_875,2025-09-10 07:44:38,That's the governor that will turn Md into the next California,0.11331909149885178,California,37.25022,-119.75126,,,,,,
GMU,GMU_877,2025-09-07 21:19:14,Both are menaces to NY!,-0.429173082113266,New York City,40.71427,-74.00597,,,,,,
GMU,GMU_1096,2020-10-18 20:16:27,Lol I got called out for not citing the Gettysburg address,-0.3555031418800354,Gettysburg,39.83093,-77.2311,,,,,,
GMU,GMU_1138,2019-03-26 00:18:11,I thought he was teaching in London tho,-0.013190251775085926,London,51.50853,-0.12574,,,,,,
GMU,GMU_1143,2019-03-25 14:55:10,facts are facts america,-0.01287218276411295,United States,39.76,-98.5,,,,,,
GMU,GMU_1172,2019-03-25 18:02:37,Yeah a two week seminar in London for the summer and ne gorsuch for the same but in Padua Italy.,0.014285878278315067,London,51.50853,-0.12574,,,,,,
GMU,GMU_1172,2019-03-25 18:02:37,Yeah a two week seminar in London for the summer and ne gorsuch for the same but in Padua Italy.,0.014285878278315067,Padova,45.40797,11.88586,,,,,,
GMU,GMU_1172,2019-03-25 18:02:37,Yeah a two week seminar in London for the summer and ne gorsuch for the same but in Padua Italy.,0.014285878278315067,Italian Republic,42.83333,12.83333,,,,,,
GMU,GMU_1192,2019-03-25 21:15:21,They still probably think Russia & Venezuela are communist anyway.,-0.32516661286354065,Russian Federation,60.0,100.0,,,,,,
GMU,GMU_1192,2019-03-25 21:15:21,They still probably think Russia & Venezuela are communist anyway.,-0.32516661286354065,Bolivarian Republic of Venezuela,8.0,-66.0,,,,,,
GMU,GMU_1222,2025-03-09 19:00:25,"#HERstory made today in Henrico, VA!",0.10220407694578171,Henrico County,37.45771,-77.29646,,,,,,
GMU,GMU_1222,2025-03-09 19:00:25,"#HERstory made today in Henrico, VA!",0.10220407694578171,Virginia,37.54812,-77.44675,,,,,,
GMU,GMU_1231,2025-03-10 00:56:00,High point just did it today in the Big South tournament,0.22320537269115448,Big South Windmill,30.24797,-99.5995,,,,,,
GMU,GMU_1232,2021-01-06 17:26:20,A very kind soul slipped this under the door for me as I was sobbing in a bathroom stall in Exploratory my sophomore year of college.,0.2229878157377243,Vista PEAK Exploratory School,39.7192,-104.70111,,,,,,
GMU,GMU_1274,2022-12-02 16:45:59,Wait so non-Mason students can get away with getting parking tickets at Mason?,-0.2972244918346405,Mason County,30.71772,-99.22613,,,,,,
GMU,GMU_1275,2022-12-02 17:51:34,"Same thing if you get a **parking, red light, or speed camera ticket** in DC or MD.",-0.2789250612258911,District of Columbia,38.91706,-77.00025,,,,,,
GMU,GMU_1275,2022-12-02 17:51:34,"Same thing if you get a **parking, red light, or speed camera ticket** in DC or MD.",-0.2789250612258911,Maryland,39.00039,-76.74997,,,,,,
GMU,GMU_1282,2022-12-02 17:53:48,I need more context i worked in DC for few months and got three speeding ticket in the same place and time each time.,-0.6155012249946594,District of Columbia,38.91706,-77.00025,,,,,,
GMU,GMU_1284,2022-12-03 00:33:24,I've gotten 3 speed camera tickets in Maryland and paid them all off; the car isn't registered to me either,-0.5217335820198059,Maryland,39.00039,-76.74997,,,,,,
GMU,GMU_1292,2025-08-26 07:40:28,"I've always found Washington pretty milquetoast, I'm extremely glad to see this.",0.9689807891845703,Washington,47.50012,-120.50147,,,,,,
GMU,GMU_1320,2020-09-19 21:15:48,"Having taken a class in Krug, I'd be surprised if it's not one of the original buildings.",0.0016310106730088592,Krug,43.71917,17.10278,,,,,,
GMU,GMU_1327,2020-09-20 09:52:53,"I feel like there has been construction there for decades now, similar to UMCP.",-0.06940802931785583,University of Maryland - College Park,38.98861,-76.9397,,,,,,
GMU,GMU_1328,2020-09-20 09:52:53,The growth in DC metropolitan area is just huge.,0.8363473415374756,District of Columbia,38.91706,-77.00025,,,,,,
GMU,GMU_1336,2020-09-19 21:39:33,"West, East, Krug, and Finley are the original 4 Fairfax Campus buildings (Krug and Finley may have originally been named ""South"" and ""North"").",0.00054984848247841,West Village,42.56676,-71.112,,,,,,
GMU,GMU_1336,2020-09-19 21:39:33,"West, East, Krug, and Finley are the original 4 Fairfax Campus buildings (Krug and Finley may have originally been named ""South"" and ""North"").",0.00054984848247841,Austurland,65.0,-15.0,,,,,,
GMU,GMU_1336,2020-09-19 21:39:33,"West, East, Krug, and Finley are the original 4 Fairfax Campus buildings (Krug and Finley may have originally been named ""South"" and ""North"").",0.00054984848247841,Krug,38.51796,-122.48165,,,,,,
GMU,GMU_1336,2020-09-19 21:39:33,"West, East, Krug, and Finley are the original 4 Fairfax Campus buildings (Krug and Finley may have originally been named ""South"" and ""North"").",0.00054984848247841,Finley,33.74621,-96.18609,,,,,,
GMU,GMU_1336,2020-09-19 21:39:33,"West, East, Krug, and Finley are the original 4 Fairfax Campus buildings (Krug and Finley may have originally been named ""South"" and ""North"").",0.00054984848247841,Fairfax Learning Center,39.14029,-94.63265,,,,,,
GMU,GMU_1336,2020-09-19 21:39:33,"West, East, Krug, and Finley are the original 4 Fairfax Campus buildings (Krug and Finley may have originally been named ""South"" and ""North"").",0.00054984848247841,Krug,38.51796,-122.48165,,,,,,
GMU,GMU_1336,2020-09-19 21:39:33,"West, East, Krug, and Finley are the original 4 Fairfax Campus buildings (Krug and Finley may have originally been named ""South"" and ""North"").",0.00054984848247841,Finley,33.74621,-96.18609,,,,,,
GMU,GMU_1336,2020-09-19 21:39:33,"West, East, Krug, and Finley are the original 4 Fairfax Campus buildings (Krug and Finley may have originally been named ""South"" and ""North"").",0.00054984848247841,Suðurland,64.0,-19.0,,,,,,
GMU,GMU_1337,2020-09-19 21:39:33,"Classes were first held in an [old school near Bailey's Crossroads](http://ahistoryofmason.gmu.edu/exhibits/show/schoolhouse/contents/schoolhouse), but this was temporary while Fairfax campus was planned and built.",-0.0026129651814699173,Fairfax,38.84622,-77.30637,,,,,,
GMU,GMU_1338,2020-09-20 13:29:11,I believe that's the Inova Emergency room and Sunrise at George Mason (Senior Living facility).,0.007340575568377972,Inova,-19.51667,28.6,,,,,,
GMU,GMU_1338,2020-09-20 13:29:11,I believe that's the Inova Emergency room and Sunrise at George Mason (Senior Living facility).,0.007340575568377972,Sunrise,36.07314,-83.79129,,,,,,
GMU,GMU_1382,2020-09-30 19:23:02,"nature is healing, the bears are coming back to gmu",0.572156548500061,Greenville Downtown Airport,34.85031,-82.3509,,,,,,
GMU,GMU_1407,2020-10-01 00:01:06,Between 1900 and 2009 there have only been 63 people killed by black bears in the US and Canada.,-0.5668126344680786,United States,39.76,-98.5,,,,,,
GMU,GMU_1407,2020-10-01 00:01:06,Between 1900 and 2009 there have only been 63 people killed by black bears in the US and Canada.,-0.5668126344680786,Canada,60.10867,-113.64258,,,,,,
GMU,GMU_1408,2020-10-01 00:01:06,https://www.smithsonianmag.com/science-nature/how-to-avoid-being-eaten-by-a-black-bear-179225111/ None of which were in Virginia.,-0.09526395797729492,Virginia,37.54812,-77.44675,,,,,,
GMU,GMU_1435,2020-09-11 17:43:34,Most nights I’d go to Mason Pond until I felt like leaving.,0.0027541392482817173,Mason Pond,41.64506,-72.80084,,,,,,
GMU,GMU_1475,2020-07-21 17:45:15,"We were pretty chill, and luckily had a house (might still) literally 2 blocks north of campus on University Dr.",0.7888985276222229,Hampton Inn & Suites Salt Lake City University-Foothill Dr.,40.74048,-111.82554,,,,,,
GMU,GMU_1509,2020-07-21 15:54:12,"Now, the U.S. was fundamentally founded on capitalism so if that something that you don’t agree with that’s your choice, but in this case it is fair to say why not go elsewhere then?",-0.15001757442951202,United States,39.76,-98.5,,,,,,
GMU,GMU_1519,2020-07-21 18:23:50,"There’s a reason why Amazon, Microsoft, Netflix, Apple, Google, Twitter, hell even the very platform we’re having this discussion on right now, and pretty much any other major revolutionary company, all originated in the U.S. There’s a reason why our top universities are more prestigious than those of other Western countries even though their top institutions have been around a lot longer.",0.7213988304138184,United States,39.76,-98.5,,,,,,
GMU,GMU_1522,2020-07-21 18:23:50,"And finally, there is a reason why people from all over the world want to immigrate to “America”.",-0.2591521143913269,United States,39.76,-98.5,,,,,,
GMU,GMU_1523,2020-07-21 18:23:50,"I’m neither white, even remotely wealthy, nor a natural-born American; I immigrated here with my family, leaving our relatively well-off life and coming here where we were essentially poor for the first decade plus, so to be clear this is not some patriotism-blinded view of the U.S.",-0.17797113955020905,United States,39.76,-98.5,,,,,,
GMU,GMU_1524,2020-07-21 18:23:50,"So that said, we have our fair share of problems like any other country, and constructively critiquing specifics of where you think capitalism or any aspects of the U.S. fall short, in order to improve it (as every engaged citizen should do), is one thing, but completely trashing it as a concept altogether (what you basically did about capitalism, and what many do regarding the U.S. as a whole) is another.",-0.4963967204093933,United States,39.76,-98.5,,,,,,
GMU,GMU_1524,2020-07-21 18:23:50,"So that said, we have our fair share of problems like any other country, and constructively critiquing specifics of where you think capitalism or any aspects of the U.S. fall short, in order to improve it (as every engaged citizen should do), is one thing, but completely trashing it as a concept altogether (what you basically did about capitalism, and what many do regarding the U.S. as a whole) is another.",-0.4963967204093933,United States,39.76,-98.5,,,,,,
GMU,GMU_1563,2022-12-13 03:45:39,"In addition, if you’re coming here to the Fairfax campus, Fairfax City not half a mile north is an excellent place for food and errands.",0.9198632836341858,Fairfax,38.84622,-77.30637,,,,,,
GMU,GMU_1563,2022-12-13 03:45:39,"In addition, if you’re coming here to the Fairfax campus, Fairfax City not half a mile north is an excellent place for food and errands.",0.9198632836341858,Fairfax,38.84622,-77.30637,,,,,,
GMU,GMU_1584,2022-12-13 01:20:14,North Carolina,0.0011078210081905127,North Carolina,35.50069,-80.00032,,,,,,
GMU,GMU_1585,2024-10-03 22:53:30,Average JC hallway flier,-0.054936733096838,Jc Contemporary,41.79959,12.47982,,,,,,
GMU,GMU_1608,2020-08-26 13:07:15,I'm on the Arlington campus.,0.000778740388341248,Arlington,32.73569,-97.10807,,,,,,
GMU,GMU_1615,2020-08-26 22:26:44,I know its normal in Spain.,0.010174493305385113,Kingdom of Spain,40.0,-4.0,,,,,,
GMU,GMU_1616,2020-08-26 15:13:22,"Can't think of any place on Mason like this - but if this isn't Mason, we need it here!",-0.1141587495803833,Mason County,43.95625,-86.42258,,,,,,
GMU,GMU_1689,2023-09-03 14:06:32,"The protesters at Southside or the Johnson Center, they just show up and bother everyone.",-0.7696394920349121,Southside,17.96569,-76.78624,,,,,,
GMU,GMU_1689,2023-09-03 14:06:32,"The protesters at Southside or the Johnson Center, they just show up and bother everyone.",-0.7696394920349121,Johnson Center for The Arts,39.47806,-86.0475,,,,,,
GMU,GMU_1747,2025-01-20 20:11:33,"This was at The Grove, but I also went around campus this morning and found fox prints in a lot of grassy/wooded areas",0.0434659942984581,The Grove,51.67708,-0.43825,,,,,,
GMU,GMU_1766,2020-03-17 00:25:02,"Shit I'll send them an email too and I don't even go to Mason anymore, I just want to bother the devil-on-earth that is Mason parking",-0.9227188229560852,Mason County,43.95625,-86.42258,,,,,,
GMU,GMU_1766,2020-03-17 00:25:02,"Shit I'll send them an email too and I don't even go to Mason anymore, I just want to bother the devil-on-earth that is Mason parking",-0.9227188229560852,Mason County,43.95625,-86.42258,,,,,,
GMU,GMU_1853,2025-10-16 13:03:40,"""Shibboleth"" is actually the name of the open-source single sign-on infrastructure they have been using for a long time.",0.0061825476586818695,Shibboleth,38.00561,-90.70541,,,,,,
GMU,GMU_1880,2022-04-26 16:44:37,GMU where the G stands for Gnowledge,-0.0031619917135685682,Greenville Downtown Airport,34.85031,-82.3509,,,,,,
GMU,GMU_1882,2022-04-26 19:32:28,They were given a notice and if they return they'll be arrested :) So yes just call mason police,-0.10692492127418518,Mason County,43.95625,-86.42258,,,,,,
GMU,GMU_1883,2022-04-26 16:26:34,They’ve gone to Eastern Shore and Hampton Roads,0.002651038346812129,Eastern Shore,38.50012,-75.49964,,,,,,
GMU,GMU_1883,2022-04-26 16:26:34,They’ve gone to Eastern Shore and Hampton Roads,0.002651038346812129,Hampton Roads,36.97515,-76.34967,,,,,,
GMU,GMU_1888,2022-04-26 19:31:41,"Yes get police involved, we called police on them in Eastern Shore and they were told if they return they'll be arrested.",-0.4454416334629059,Eastern Shore,38.50012,-75.49964,,,,,,
GMU,GMU_1916,2025-03-06 22:58:53,Feel free to move to the middle east,0.029274702072143555,Al Bank al Brīţānī lish Sharq al Awsaţ,25.2643,55.29326,,,,,,
GMU,GMU_1933,2025-03-07 01:17:41,"No thanks, don't want to get bombed by the US",-0.626058042049408,United States,39.76,-98.5,,,,,,
GMU,GMU_1935,2025-03-06 23:14:46,"Just above this post I had this … https://www.reddit.com/r/washingtondc/s/cmcG5VNgB0 and another post about Warren County, VA closing the Front Royal Public Library because they have LGBTQ books.",-0.11702235043048859,Warren County,38.90878,-78.20746,,,,,,
GMU,GMU_1935,2025-03-06 23:14:46,"Just above this post I had this … https://www.reddit.com/r/washingtondc/s/cmcG5VNgB0 and another post about Warren County, VA closing the Front Royal Public Library because they have LGBTQ books.",-0.11702235043048859,Virginia,37.54812,-77.44675,,,,,,
GMU,GMU_1936,2025-03-06 23:14:46,That’s a bit closer than the Middle East.,-0.010225564241409302,Al Bank al Brīţānī lish Sharq al Awsaţ,25.2643,55.29326,,,,,,
GMU,GMU_2052,2019-05-12 00:43:10,I thought George Masons campus was just a Starbucks parking lot in Nova,-0.1430952399969101,Nova,64.48632,11.0805,,,,,,
GMU,GMU_2056,2019-05-09 07:03:12,"Before that was Exploratory, before that was all the other newish dorms and Merten Hall",-8.138187695294619e-05,Vista PEAK Exploratory School,39.7192,-104.70111,,,,,,
GMU,GMU_2063,2022-03-25 16:00:18,This is for the dudes racing their loud cars in the middle of the night on Braddock,-0.07948217540979385,Braddock Hills,40.41729,-79.86505,,,,,,
GMU,GMU_2077,2022-04-23 01:42:37,this happens constantly at the shenandoah parking deck,-0.04340275377035141,Shenandoah,40.82037,-76.20077,,,,,,
GMU,GMU_2111,2018-11-09 19:07:08,"It wasn’t our fault but now we have to do extra work, because if eagle bank arena….",-0.23860937356948853,Eagle Bank,-30.25118,139.91602,,,,,,
GMU,GMU_2120,2018-11-09 20:12:07,if eagle bank arena what????,-0.05049818381667137,Eagle Bank,-30.25118,139.91602,,,,,,
GMU,GMU_2133,2020-06-20 21:58:13,I thought you said West!,-0.025513451546430588,West,42.77268,-116.9579,,,,,,
GMU,GMU_2151,2025-10-04 17:46:23,I've never seen a bird like that in VA,-0.24337752163410187,Virginia,37.54812,-77.44675,,,,,,
GMU,GMU_2162,2025-10-06 15:16:20,It was by the long wooden bridge in the wooded area past the mason pond parking deck,0.003082330571487546,Mason Pond,41.64506,-72.80084,,,,,,
GMU,GMU_2182,2025-10-04 22:21:20,"Some species experience strong natural selection for rapidly increased fertility when population drops significantly, that's why big cities like New York City can never get rid of all their rats or other rodents.",-0.32082074880599976,New York City,40.71427,-74.00597,,,,,,
GMU,GMU_2192,2025-10-04 19:05:51,They're EVERYWHERE if you check my profile I posted a picture of a tree outside of Southside I found on my way back to my hall yesterday,0.09143128246068954,Southside,39.78121,-76.39468,,,,,,
GMU,GMU_2193,2025-10-04 17:51:04,"they were introduced to the US in the mid 2010s, only have been in VA for a couple years",0.01152658462524414,United States,39.76,-98.5,,,,,,
GMU,GMU_2193,2025-10-04 17:51:04,"they were introduced to the US in the mid 2010s, only have been in VA for a couple years",0.01152658462524414,Virginia,37.54812,-77.44675,,,,,,
GMU,GMU_2204,2025-10-04 15:57:27,"You actually should, as they're invasive - they've multiplied in such large numbers due to having no natural predators here in the US, and have been consuming resources normally used by other insects So by not killing you're allowing non invasive species to die, which will then limit food for birds, killing birds, etc.- you kill a lot more creatures by not killing lanternflies than by killing them",-0.5892893671989441,United States,39.76,-98.5,,,,,,
GMU,GMU_2249,2020-07-29 19:11:44,Use the “search by Officer name” option and input his name: “John Spivey” - When you search the New Orleans address (5414 Constance street) listed on the website above its actually a run down looking house.,-0.10535359382629395,New Orleans,29.95465,-90.07507,,,,,,
GMU,GMU_2250,2020-07-29 19:11:44,"- He has 28 different LLC’s under his name some of which are still active (one of them being Kallaco) Here are all of the LLC’s under John Spivey the “CEO of Kallaco”: SPIVEY, JOHN Agent of “S6-LZS, LLC” NEW ORLEANS SPIVEY, JOHN Member of “S6-LZS, LLC” NEW ORLEANS SPIVEY, JOHN Agent of “S6-RBT, LLC” NEW ORLEANS SPIVEY, JOHN Member of “S6-RBT, LLC” NEW ORLEANS SPIVEY, JOHN Agent of “S6 HOLDINGS, LLC” NEW ORLEANS SPIVEY, JOHN Member of “S6 HOLDINGS, LLC” NEW ORLEANS SPIVEY, JOHN Agent of “S6 - SHP LLC” NEW ORLEANS SPIVEY, JOHN Member of “S6 - SHP LLC” NEW ORLEANS SPIVEY, JOHN Agent of “SHP MANAGEMENT GROUP, LLC” NEW ORLEANS SPIVEY, JOHN Manager of “SHP MANAGEMENT GROUP, LLC” NEW ORLEANS SPIVEY, JOHN Agent of “SPIVEY & COMPANY, INC.” NEW ORLEANS SPIVEY, JOHN President of “SPIVEY & COMPANY, INC.” NEW ORLEANS SPIVEY, JOHN Director of “SPIVEY & COMPANY, INC.” NEW ORLEANS SPIVEY, JOHN Manager of “ENGAGEDX, LLC” NEW ORLEANS SPIVEY, JOHN Manager of “ENGAGESP, LLC” NEW ORLEANS SPIVEY, JOHN Agent of “ENGAGEU, LLC” NEW ORLEANS SPIVEY, JOHN Manager of “ENGAGEU, LLC” NEW ORLEANS SPIVEY, JOHN Agent of “UNO HEALTH INTERNATIONAL INC.” NEW ORLEANS SPIVEY, JOHN President of “UNO HEALTH INTERNATIONAL INC.” NEW ORLEANS SPIVEY, JOHN Agent of “ENGAGEDX, LLC” NEW ORLEANS SPIVEY, JOHN Agent of “ENGAGESP, LLC” NEW ORLEANS SPIVEY, JOHN Manager of “SUMMIT HEALTH STRATEGIES, LLC” NEW ORLEANS SPIVEY, JOHN Agent of “AVAILIANT HEALTHCARE STRATEGIES, LLC” NEW ORLEANS SPIVEY, JOHN Manager of “AVAILIANT HEALTHCARE STRATEGIES, LLC” NEW ORLEANS SPIVEY, JOHN Agent of “KALLACO, LLC” NEW ORLEANS SPIVEY, JOHN Manager of “KALLACO, LLC” NEW ORLEANS SPIVEY, JOHN PAUL Member of “DZS LAND & MINERALS, LLC” COLLEGE STATION SPIVEY, JOHN W. Manager of “SIBLEY GAS FIELD VENTURE, L.L.C.” HOUSTON",-0.0033797873184084892,New Orleans,29.95465,-90.07507,,,,,,
GMU,GMU_2250,2020-07-29 19:11:44,"- He has 28 different LLC’s under his name some of which are still active (one of them being Kallaco) Here are all of the LLC’s under John Spivey the “CEO of Kallaco”: SPIVEY, JOHN Agent of “S6-LZS, LLC” NEW ORLEANS SPIVEY, JOHN Member of “S6-LZS, LLC” NEW ORLEANS SPIVEY, JOHN Agent of “S6-RBT, LLC” NEW ORLEANS SPIVEY, JOHN Member of “S6-RBT, LLC” NEW ORLEANS SPIVEY, JOHN Agent of “S6 HOLDINGS, LLC” NEW ORLEANS SPIVEY, JOHN Member of “S6 HOLDINGS, LLC” NEW ORLEANS SPIVEY, JOHN Agent of “S6 - SHP LLC” NEW ORLEANS SPIVEY, JOHN Member of “S6 - SHP LLC” NEW ORLEANS SPIVEY, JOHN Agent of “SHP MANAGEMENT GROUP, LLC” NEW ORLEANS SPIVEY, JOHN Manager of “SHP MANAGEMENT GROUP, LLC” NEW ORLEANS SPIVEY, JOHN Agent of “SPIVEY & COMPANY, INC.” NEW ORLEANS SPIVEY, JOHN President of “SPIVEY & COMPANY, INC.” NEW ORLEANS SPIVEY, JOHN Director of “SPIVEY & COMPANY, INC.” NEW ORLEANS SPIVEY, JOHN Manager of “ENGAGEDX, LLC” NEW ORLEANS SPIVEY, JOHN Manager of “ENGAGESP, LLC” NEW ORLEANS SPIVEY, JOHN Agent of “ENGAGEU, LLC” NEW ORLEANS SPIVEY, JOHN Manager of “ENGAGEU, LLC” NEW ORLEANS SPIVEY, JOHN Agent of “UNO HEALTH INTERNATIONAL INC.” NEW ORLEANS SPIVEY, JOHN President of “UNO HEALTH INTERNATIONAL INC.” NEW ORLEANS SPIVEY, JOHN Agent of “ENGAGEDX, LLC” NEW ORLEANS SPIVEY, JOHN Agent of “ENGAGESP, LLC” NEW ORLEANS SPIVEY, JOHN Manager of “SUMMIT HEALTH STRATEGIES, LLC” NEW ORLEANS SPIVEY, JOHN Agent of “AVAILIANT HEALTHCARE STRATEGIES, LLC” NEW ORLEANS SPIVEY, JOHN Manager of “AVAILIANT HEALTHCARE STRATEGIES, LLC” NEW ORLEANS SPIVEY, JOHN Agent of “KALLACO, LLC” NEW ORLEANS SPIVEY, JOHN Manager of “KALLACO, LLC” NEW ORLEANS SPIVEY, JOHN PAUL Member of “DZS LAND & MINERALS, LLC” COLLEGE STATION SPIVEY, JOHN W. Manager of “SIBLEY GAS FIELD VENTURE, L.L.C.” HOUSTON",-0.0033797873184084892,New Orleans,29.95465,-90.07507,,,,,,
GMU,GMU_2250,2020-07-29 19:11:44,"- He has 28 different LLC’s under his name some of which are still active (one of them being Kallaco) Here are all of the LLC’s under John Spivey the “CEO of Kallaco”: SPIVEY, JOHN Agent of “S6-LZS, LLC” NEW ORLEANS SPIVEY, JOHN Member of “S6-LZS, LLC” NEW ORLEANS SPIVEY, JOHN Agent of “S6-RBT, LLC” NEW ORLEANS SPIVEY, JOHN Member of “S6-RBT, LLC” NEW ORLEANS SPIVEY, JOHN Agent of “S6 HOLDINGS, LLC” NEW ORLEANS SPIVEY, JOHN Member of “S6 HOLDINGS, LLC” NEW ORLEANS SPIVEY, JOHN Agent of “S6 - SHP LLC” NEW ORLEANS SPIVEY, JOHN Member of “S6 - SHP LLC” NEW ORLEANS SPIVEY, JOHN Agent of “SHP MANAGEMENT GROUP, LLC” NEW ORLEANS SPIVEY, JOHN Manager of “SHP MANAGEMENT GROUP, LLC” NEW ORLEANS SPIVEY, JOHN Agent of “SPIVEY & COMPANY, INC.” NEW ORLEANS SPIVEY, JOHN President of “SPIVEY & COMPANY, INC.” NEW ORLEANS SPIVEY, JOHN Director of “SPIVEY & COMPANY, INC.” NEW ORLEANS SPIVEY, JOHN Manager of “ENGAGEDX, LLC” NEW ORLEANS SPIVEY, JOHN Manager of “ENGAGESP, LLC” NEW ORLEANS SPIVEY, JOHN Agent of “ENGAGEU, LLC” NEW ORLEANS SPIVEY, JOHN Manager of “ENGAGEU, LLC” NEW ORLEANS SPIVEY, JOHN Agent of “UNO HEALTH INTERNATIONAL INC.” NEW ORLEANS SPIVEY, JOHN President of “UNO HEALTH INTERNATIONAL INC.” NEW ORLEANS SPIVEY, JOHN Agent of “ENGAGEDX, LLC” NEW ORLEANS SPIVEY, JOHN Agent of “ENGAGESP, LLC” NEW ORLEANS SPIVEY, JOHN Manager of “SUMMIT HEALTH STRATEGIES, LLC” NEW ORLEANS SPIVEY, JOHN Agent of “AVAILIANT HEALTHCARE STRATEGIES, LLC” NEW ORLEANS SPIVEY, JOHN Manager of “AVAILIANT HEALTHCARE STRATEGIES, LLC” NEW ORLEANS SPIVEY, JOHN Agent of “KALLACO, LLC” NEW ORLEANS SPIVEY, JOHN Manager of “KALLACO, LLC” NEW ORLEANS SPIVEY, JOHN PAUL Member of “DZS LAND & MINERALS, LLC” COLLEGE STATION SPIVEY, JOHN W. Manager of “SIBLEY GAS FIELD VENTURE, L.L.C.” HOUSTON",-0.0033797873184084892,New Orleans,29.95465,-90.07507,,,,,,
GMU,GMU_2250,2020-07-29 19:11:44,"- He has 28 different LLC’s under his name some of which are still active (one of them being Kallaco) Here are all of the LLC’s under John Spivey the “CEO of Kallaco”: SPIVEY, JOHN Agent of “S6-LZS, LLC” NEW ORLEANS SPIVEY, JOHN Member of “S6-LZS, LLC” NEW ORLEANS SPIVEY, JOHN Agent of “S6-RBT, LLC” NEW ORLEANS SPIVEY, JOHN Member of “S6-RBT, LLC” NEW ORLEANS SPIVEY, JOHN Agent of “S6 HOLDINGS, LLC” NEW ORLEANS SPIVEY, JOHN Member of “S6 HOLDINGS, LLC” NEW ORLEANS SPIVEY, JOHN Agent of “S6 - SHP LLC” NEW ORLEANS SPIVEY, JOHN Member of “S6 - SHP LLC” NEW ORLEANS SPIVEY, JOHN Agent of “SHP MANAGEMENT GROUP, LLC” NEW ORLEANS SPIVEY, JOHN Manager of “SHP MANAGEMENT GROUP, LLC” NEW ORLEANS SPIVEY, JOHN Agent of “SPIVEY & COMPANY, INC.” NEW ORLEANS SPIVEY, JOHN President of “SPIVEY & COMPANY, INC.” NEW ORLEANS SPIVEY, JOHN Director of “SPIVEY & COMPANY, INC.” NEW ORLEANS SPIVEY, JOHN Manager of “ENGAGEDX, LLC” NEW ORLEANS SPIVEY, JOHN Manager of “ENGAGESP, LLC” NEW ORLEANS SPIVEY, JOHN Agent of “ENGAGEU, LLC” NEW ORLEANS SPIVEY, JOHN Manager of “ENGAGEU, LLC” NEW ORLEANS SPIVEY, JOHN Agent of “UNO HEALTH INTERNATIONAL INC.” NEW ORLEANS SPIVEY, JOHN President of “UNO HEALTH INTERNATIONAL INC.” NEW ORLEANS SPIVEY, JOHN Agent of “ENGAGEDX, LLC” NEW ORLEANS SPIVEY, JOHN Agent of “ENGAGESP, LLC” NEW ORLEANS SPIVEY, JOHN Manager of “SUMMIT HEALTH STRATEGIES, LLC” NEW ORLEANS SPIVEY, JOHN Agent of “AVAILIANT HEALTHCARE STRATEGIES, LLC” NEW ORLEANS SPIVEY, JOHN Manager of “AVAILIANT HEALTHCARE STRATEGIES, LLC” NEW ORLEANS SPIVEY, JOHN Agent of “KALLACO, LLC” NEW ORLEANS SPIVEY, JOHN Manager of “KALLACO, LLC” NEW ORLEANS SPIVEY, JOHN PAUL Member of “DZS LAND & MINERALS, LLC” COLLEGE STATION SPIVEY, JOHN W. Manager of “SIBLEY GAS FIELD VENTURE, L.L.C.” HOUSTON",-0.0033797873184084892,New Orleans,29.95465,-90.07507,,,,,,
GMU,GMU_2250,2020-07-29 19:11:44,"- He has 28 different LLC’s under his name some of which are still active (one of them being Kallaco) Here are all of the LLC’s under John Spivey the “CEO of Kallaco”: SPIVEY, JOHN Agent of “S6-LZS, LLC” NEW ORLEANS SPIVEY, JOHN Member of “S6-LZS, LLC” NEW ORLEANS SPIVEY, JOHN Agent of “S6-RBT, LLC” NEW ORLEANS SPIVEY, JOHN Member of “S6-RBT, LLC” NEW ORLEANS SPIVEY, JOHN Agent of “S6 HOLDINGS, LLC” NEW ORLEANS SPIVEY, JOHN Member of “S6 HOLDINGS, LLC” NEW ORLEANS SPIVEY, JOHN Agent of “S6 - SHP LLC” NEW ORLEANS SPIVEY, JOHN Member of “S6 - SHP LLC” NEW ORLEANS SPIVEY, JOHN Agent of “SHP MANAGEMENT GROUP, LLC” NEW ORLEANS SPIVEY, JOHN Manager of “SHP MANAGEMENT GROUP, LLC” NEW ORLEANS SPIVEY, JOHN Agent of “SPIVEY & COMPANY, INC.” NEW ORLEANS SPIVEY, JOHN President of “SPIVEY & COMPANY, INC.” NEW ORLEANS SPIVEY, JOHN Director of “SPIVEY & COMPANY, INC.” NEW ORLEANS SPIVEY, JOHN Manager of “ENGAGEDX, LLC” NEW ORLEANS SPIVEY, JOHN Manager of “ENGAGESP, LLC” NEW ORLEANS SPIVEY, JOHN Agent of “ENGAGEU, LLC” NEW ORLEANS SPIVEY, JOHN Manager of “ENGAGEU, LLC” NEW ORLEANS SPIVEY, JOHN Agent of “UNO HEALTH INTERNATIONAL INC.” NEW ORLEANS SPIVEY, JOHN President of “UNO HEALTH INTERNATIONAL INC.” NEW ORLEANS SPIVEY, JOHN Agent of “ENGAGEDX, LLC” NEW ORLEANS SPIVEY, JOHN Agent of “ENGAGESP, LLC” NEW ORLEANS SPIVEY, JOHN Manager of “SUMMIT HEALTH STRATEGIES, LLC” NEW ORLEANS SPIVEY, JOHN Agent of “AVAILIANT HEALTHCARE STRATEGIES, LLC” NEW ORLEANS SPIVEY, JOHN Manager of “AVAILIANT HEALTHCARE STRATEGIES, LLC” NEW ORLEANS SPIVEY, JOHN Agent of “KALLACO, LLC” NEW ORLEANS SPIVEY, JOHN Manager of “KALLACO, LLC” NEW ORLEANS SPIVEY, JOHN PAUL Member of “DZS LAND & MINERALS, LLC” COLLEGE STATION SPIVEY, JOHN W. Manager of “SIBLEY GAS FIELD VENTURE, L.L.C.” HOUSTON",-0.0033797873184084892,New Orleans,29.95465,-90.07507,,,,,,
GMU,GMU_2250,2020-07-29 19:11:44,"- He has 28 different LLC’s under his name some of which are still active (one of them being Kallaco) Here are all of the LLC’s under John Spivey the “CEO of Kallaco”: SPIVEY, JOHN Agent of “S6-LZS, LLC” NEW ORLEANS SPIVEY, JOHN Member of “S6-LZS, LLC” NEW ORLEANS SPIVEY, JOHN Agent of “S6-RBT, LLC” NEW ORLEANS SPIVEY, JOHN Member of “S6-RBT, LLC” NEW ORLEANS SPIVEY, JOHN Agent of “S6 HOLDINGS, LLC” NEW ORLEANS SPIVEY, JOHN Member of “S6 HOLDINGS, LLC” NEW ORLEANS SPIVEY, JOHN Agent of “S6 - SHP LLC” NEW ORLEANS SPIVEY, JOHN Member of “S6 - SHP LLC” NEW ORLEANS SPIVEY, JOHN Agent of “SHP MANAGEMENT GROUP, LLC” NEW ORLEANS SPIVEY, JOHN Manager of “SHP MANAGEMENT GROUP, LLC” NEW ORLEANS SPIVEY, JOHN Agent of “SPIVEY & COMPANY, INC.” NEW ORLEANS SPIVEY, JOHN President of “SPIVEY & COMPANY, INC.” NEW ORLEANS SPIVEY, JOHN Director of “SPIVEY & COMPANY, INC.” NEW ORLEANS SPIVEY, JOHN Manager of “ENGAGEDX, LLC” NEW ORLEANS SPIVEY, JOHN Manager of “ENGAGESP, LLC” NEW ORLEANS SPIVEY, JOHN Agent of “ENGAGEU, LLC” NEW ORLEANS SPIVEY, JOHN Manager of “ENGAGEU, LLC” NEW ORLEANS SPIVEY, JOHN Agent of “UNO HEALTH INTERNATIONAL INC.” NEW ORLEANS SPIVEY, JOHN President of “UNO HEALTH INTERNATIONAL INC.” NEW ORLEANS SPIVEY, JOHN Agent of “ENGAGEDX, LLC” NEW ORLEANS SPIVEY, JOHN Agent of “ENGAGESP, LLC” NEW ORLEANS SPIVEY, JOHN Manager of “SUMMIT HEALTH STRATEGIES, LLC” NEW ORLEANS SPIVEY, JOHN Agent of “AVAILIANT HEALTHCARE STRATEGIES, LLC” NEW ORLEANS SPIVEY, JOHN Manager of “AVAILIANT HEALTHCARE STRATEGIES, LLC” NEW ORLEANS SPIVEY, JOHN Agent of “KALLACO, LLC” NEW ORLEANS SPIVEY, JOHN Manager of “KALLACO, LLC” NEW ORLEANS SPIVEY, JOHN PAUL Member of “DZS LAND & MINERALS, LLC” COLLEGE STATION SPIVEY, JOHN W. Manager of “SIBLEY GAS FIELD VENTURE, L.L.C.” HOUSTON",-0.0033797873184084892,New Orleans,29.95465,-90.07507,,,,,,
GMU,GMU_2250,2020-07-29 19:11:44,"- He has 28 different LLC’s under his name some of which are still active (one of them being Kallaco) Here are all of the LLC’s under John Spivey the “CEO of Kallaco”: SPIVEY, JOHN Agent of “S6-LZS, LLC” NEW ORLEANS SPIVEY, JOHN Member of “S6-LZS, LLC” NEW ORLEANS SPIVEY, JOHN Agent of “S6-RBT, LLC” NEW ORLEANS SPIVEY, JOHN Member of “S6-RBT, LLC” NEW ORLEANS SPIVEY, JOHN Agent of “S6 HOLDINGS, LLC” NEW ORLEANS SPIVEY, JOHN Member of “S6 HOLDINGS, LLC” NEW ORLEANS SPIVEY, JOHN Agent of “S6 - SHP LLC” NEW ORLEANS SPIVEY, JOHN Member of “S6 - SHP LLC” NEW ORLEANS SPIVEY, JOHN Agent of “SHP MANAGEMENT GROUP, LLC” NEW ORLEANS SPIVEY, JOHN Manager of “SHP MANAGEMENT GROUP, LLC” NEW ORLEANS SPIVEY, JOHN Agent of “SPIVEY & COMPANY, INC.” NEW ORLEANS SPIVEY, JOHN President of “SPIVEY & COMPANY, INC.” NEW ORLEANS SPIVEY, JOHN Director of “SPIVEY & COMPANY, INC.” NEW ORLEANS SPIVEY, JOHN Manager of “ENGAGEDX, LLC” NEW ORLEANS SPIVEY, JOHN Manager of “ENGAGESP, LLC” NEW ORLEANS SPIVEY, JOHN Agent of “ENGAGEU, LLC” NEW ORLEANS SPIVEY, JOHN Manager of “ENGAGEU, LLC” NEW ORLEANS SPIVEY, JOHN Agent of “UNO HEALTH INTERNATIONAL INC.” NEW ORLEANS SPIVEY, JOHN President of “UNO HEALTH INTERNATIONAL INC.” NEW ORLEANS SPIVEY, JOHN Agent of “ENGAGEDX, LLC” NEW ORLEANS SPIVEY, JOHN Agent of “ENGAGESP, LLC” NEW ORLEANS SPIVEY, JOHN Manager of “SUMMIT HEALTH STRATEGIES, LLC” NEW ORLEANS SPIVEY, JOHN Agent of “AVAILIANT HEALTHCARE STRATEGIES, LLC” NEW ORLEANS SPIVEY, JOHN Manager of “AVAILIANT HEALTHCARE STRATEGIES, LLC” NEW ORLEANS SPIVEY, JOHN Agent of “KALLACO, LLC” NEW ORLEANS SPIVEY, JOHN Manager of “KALLACO, LLC” NEW ORLEANS SPIVEY, JOHN PAUL Member of “DZS LAND & MINERALS, LLC” COLLEGE STATION SPIVEY, JOHN W. Manager of “SIBLEY GAS FIELD VENTURE, L.L.C.” HOUSTON",-0.0033797873184084892,New Orleans,29.95465,-90.07507,,,,,,
GMU,GMU_2250,2020-07-29 19:11:44,"- He has 28 different LLC’s under his name some of which are still active (one of them being Kallaco) Here are all of the LLC’s under John Spivey the “CEO of Kallaco”: SPIVEY, JOHN Agent of “S6-LZS, LLC” NEW ORLEANS SPIVEY, JOHN Member of “S6-LZS, LLC” NEW ORLEANS SPIVEY, JOHN Agent of “S6-RBT, LLC” NEW ORLEANS SPIVEY, JOHN Member of “S6-RBT, LLC” NEW ORLEANS SPIVEY, JOHN Agent of “S6 HOLDINGS, LLC” NEW ORLEANS SPIVEY, JOHN Member of “S6 HOLDINGS, LLC” NEW ORLEANS SPIVEY, JOHN Agent of “S6 - SHP LLC” NEW ORLEANS SPIVEY, JOHN Member of “S6 - SHP LLC” NEW ORLEANS SPIVEY, JOHN Agent of “SHP MANAGEMENT GROUP, LLC” NEW ORLEANS SPIVEY, JOHN Manager of “SHP MANAGEMENT GROUP, LLC” NEW ORLEANS SPIVEY, JOHN Agent of “SPIVEY & COMPANY, INC.” NEW ORLEANS SPIVEY, JOHN President of “SPIVEY & COMPANY, INC.” NEW ORLEANS SPIVEY, JOHN Director of “SPIVEY & COMPANY, INC.” NEW ORLEANS SPIVEY, JOHN Manager of “ENGAGEDX, LLC” NEW ORLEANS SPIVEY, JOHN Manager of “ENGAGESP, LLC” NEW ORLEANS SPIVEY, JOHN Agent of “ENGAGEU, LLC” NEW ORLEANS SPIVEY, JOHN Manager of “ENGAGEU, LLC” NEW ORLEANS SPIVEY, JOHN Agent of “UNO HEALTH INTERNATIONAL INC.” NEW ORLEANS SPIVEY, JOHN President of “UNO HEALTH INTERNATIONAL INC.” NEW ORLEANS SPIVEY, JOHN Agent of “ENGAGEDX, LLC” NEW ORLEANS SPIVEY, JOHN Agent of “ENGAGESP, LLC” NEW ORLEANS SPIVEY, JOHN Manager of “SUMMIT HEALTH STRATEGIES, LLC” NEW ORLEANS SPIVEY, JOHN Agent of “AVAILIANT HEALTHCARE STRATEGIES, LLC” NEW ORLEANS SPIVEY, JOHN Manager of “AVAILIANT HEALTHCARE STRATEGIES, LLC” NEW ORLEANS SPIVEY, JOHN Agent of “KALLACO, LLC” NEW ORLEANS SPIVEY, JOHN Manager of “KALLACO, LLC” NEW ORLEANS SPIVEY, JOHN PAUL Member of “DZS LAND & MINERALS, LLC” COLLEGE STATION SPIVEY, JOHN W. Manager of “SIBLEY GAS FIELD VENTURE, L.L.C.” HOUSTON",-0.0033797873184084892,New Orleans,29.95465,-90.07507,,,,,,
GMU,GMU_2250,2020-07-29 19:11:44,"- He has 28 different LLC’s under his name some of which are still active (one of them being Kallaco) Here are all of the LLC’s under John Spivey the “CEO of Kallaco”: SPIVEY, JOHN Agent of “S6-LZS, LLC” NEW ORLEANS SPIVEY, JOHN Member of “S6-LZS, LLC” NEW ORLEANS SPIVEY, JOHN Agent of “S6-RBT, LLC” NEW ORLEANS SPIVEY, JOHN Member of “S6-RBT, LLC” NEW ORLEANS SPIVEY, JOHN Agent of “S6 HOLDINGS, LLC” NEW ORLEANS SPIVEY, JOHN Member of “S6 HOLDINGS, LLC” NEW ORLEANS SPIVEY, JOHN Agent of “S6 - SHP LLC” NEW ORLEANS SPIVEY, JOHN Member of “S6 - SHP LLC” NEW ORLEANS SPIVEY, JOHN Agent of “SHP MANAGEMENT GROUP, LLC” NEW ORLEANS SPIVEY, JOHN Manager of “SHP MANAGEMENT GROUP, LLC” NEW ORLEANS SPIVEY, JOHN Agent of “SPIVEY & COMPANY, INC.” NEW ORLEANS SPIVEY, JOHN President of “SPIVEY & COMPANY, INC.” NEW ORLEANS SPIVEY, JOHN Director of “SPIVEY & COMPANY, INC.” NEW ORLEANS SPIVEY, JOHN Manager of “ENGAGEDX, LLC” NEW ORLEANS SPIVEY, JOHN Manager of “ENGAGESP, LLC” NEW ORLEANS SPIVEY, JOHN Agent of “ENGAGEU, LLC” NEW ORLEANS SPIVEY, JOHN Manager of “ENGAGEU, LLC” NEW ORLEANS SPIVEY, JOHN Agent of “UNO HEALTH INTERNATIONAL INC.” NEW ORLEANS SPIVEY, JOHN President of “UNO HEALTH INTERNATIONAL INC.” NEW ORLEANS SPIVEY, JOHN Agent of “ENGAGEDX, LLC” NEW ORLEANS SPIVEY, JOHN Agent of “ENGAGESP, LLC” NEW ORLEANS SPIVEY, JOHN Manager of “SUMMIT HEALTH STRATEGIES, LLC” NEW ORLEANS SPIVEY, JOHN Agent of “AVAILIANT HEALTHCARE STRATEGIES, LLC” NEW ORLEANS SPIVEY, JOHN Manager of “AVAILIANT HEALTHCARE STRATEGIES, LLC” NEW ORLEANS SPIVEY, JOHN Agent of “KALLACO, LLC” NEW ORLEANS SPIVEY, JOHN Manager of “KALLACO, LLC” NEW ORLEANS SPIVEY, JOHN PAUL Member of “DZS LAND & MINERALS, LLC” COLLEGE STATION SPIVEY, JOHN W. Manager of “SIBLEY GAS FIELD VENTURE, L.L.C.” HOUSTON",-0.0033797873184084892,New Orleans,29.95465,-90.07507,,,,,,
GMU,GMU_2250,2020-07-29 19:11:44,"- He has 28 different LLC’s under his name some of which are still active (one of them being Kallaco) Here are all of the LLC’s under John Spivey the “CEO of Kallaco”: SPIVEY, JOHN Agent of “S6-LZS, LLC” NEW ORLEANS SPIVEY, JOHN Member of “S6-LZS, LLC” NEW ORLEANS SPIVEY, JOHN Agent of “S6-RBT, LLC” NEW ORLEANS SPIVEY, JOHN Member of “S6-RBT, LLC” NEW ORLEANS SPIVEY, JOHN Agent of “S6 HOLDINGS, LLC” NEW ORLEANS SPIVEY, JOHN Member of “S6 HOLDINGS, LLC” NEW ORLEANS SPIVEY, JOHN Agent of “S6 - SHP LLC” NEW ORLEANS SPIVEY, JOHN Member of “S6 - SHP LLC” NEW ORLEANS SPIVEY, JOHN Agent of “SHP MANAGEMENT GROUP, LLC” NEW ORLEANS SPIVEY, JOHN Manager of “SHP MANAGEMENT GROUP, LLC” NEW ORLEANS SPIVEY, JOHN Agent of “SPIVEY & COMPANY, INC.” NEW ORLEANS SPIVEY, JOHN President of “SPIVEY & COMPANY, INC.” NEW ORLEANS SPIVEY, JOHN Director of “SPIVEY & COMPANY, INC.” NEW ORLEANS SPIVEY, JOHN Manager of “ENGAGEDX, LLC” NEW ORLEANS SPIVEY, JOHN Manager of “ENGAGESP, LLC” NEW ORLEANS SPIVEY, JOHN Agent of “ENGAGEU, LLC” NEW ORLEANS SPIVEY, JOHN Manager of “ENGAGEU, LLC” NEW ORLEANS SPIVEY, JOHN Agent of “UNO HEALTH INTERNATIONAL INC.” NEW ORLEANS SPIVEY, JOHN President of “UNO HEALTH INTERNATIONAL INC.” NEW ORLEANS SPIVEY, JOHN Agent of “ENGAGEDX, LLC” NEW ORLEANS SPIVEY, JOHN Agent of “ENGAGESP, LLC” NEW ORLEANS SPIVEY, JOHN Manager of “SUMMIT HEALTH STRATEGIES, LLC” NEW ORLEANS SPIVEY, JOHN Agent of “AVAILIANT HEALTHCARE STRATEGIES, LLC” NEW ORLEANS SPIVEY, JOHN Manager of “AVAILIANT HEALTHCARE STRATEGIES, LLC” NEW ORLEANS SPIVEY, JOHN Agent of “KALLACO, LLC” NEW ORLEANS SPIVEY, JOHN Manager of “KALLACO, LLC” NEW ORLEANS SPIVEY, JOHN PAUL Member of “DZS LAND & MINERALS, LLC” COLLEGE STATION SPIVEY, JOHN W. Manager of “SIBLEY GAS FIELD VENTURE, L.L.C.” HOUSTON",-0.0033797873184084892,New Orleans,29.95465,-90.07507,,,,,,
GMU,GMU_2250,2020-07-29 19:11:44,"- He has 28 different LLC’s under his name some of which are still active (one of them being Kallaco) Here are all of the LLC’s under John Spivey the “CEO of Kallaco”: SPIVEY, JOHN Agent of “S6-LZS, LLC” NEW ORLEANS SPIVEY, JOHN Member of “S6-LZS, LLC” NEW ORLEANS SPIVEY, JOHN Agent of “S6-RBT, LLC” NEW ORLEANS SPIVEY, JOHN Member of “S6-RBT, LLC” NEW ORLEANS SPIVEY, JOHN Agent of “S6 HOLDINGS, LLC” NEW ORLEANS SPIVEY, JOHN Member of “S6 HOLDINGS, LLC” NEW ORLEANS SPIVEY, JOHN Agent of “S6 - SHP LLC” NEW ORLEANS SPIVEY, JOHN Member of “S6 - SHP LLC” NEW ORLEANS SPIVEY, JOHN Agent of “SHP MANAGEMENT GROUP, LLC” NEW ORLEANS SPIVEY, JOHN Manager of “SHP MANAGEMENT GROUP, LLC” NEW ORLEANS SPIVEY, JOHN Agent of “SPIVEY & COMPANY, INC.” NEW ORLEANS SPIVEY, JOHN President of “SPIVEY & COMPANY, INC.” NEW ORLEANS SPIVEY, JOHN Director of “SPIVEY & COMPANY, INC.” NEW ORLEANS SPIVEY, JOHN Manager of “ENGAGEDX, LLC” NEW ORLEANS SPIVEY, JOHN Manager of “ENGAGESP, LLC” NEW ORLEANS SPIVEY, JOHN Agent of “ENGAGEU, LLC” NEW ORLEANS SPIVEY, JOHN Manager of “ENGAGEU, LLC” NEW ORLEANS SPIVEY, JOHN Agent of “UNO HEALTH INTERNATIONAL INC.” NEW ORLEANS SPIVEY, JOHN President of “UNO HEALTH INTERNATIONAL INC.” NEW ORLEANS SPIVEY, JOHN Agent of “ENGAGEDX, LLC” NEW ORLEANS SPIVEY, JOHN Agent of “ENGAGESP, LLC” NEW ORLEANS SPIVEY, JOHN Manager of “SUMMIT HEALTH STRATEGIES, LLC” NEW ORLEANS SPIVEY, JOHN Agent of “AVAILIANT HEALTHCARE STRATEGIES, LLC” NEW ORLEANS SPIVEY, JOHN Manager of “AVAILIANT HEALTHCARE STRATEGIES, LLC” NEW ORLEANS SPIVEY, JOHN Agent of “KALLACO, LLC” NEW ORLEANS SPIVEY, JOHN Manager of “KALLACO, LLC” NEW ORLEANS SPIVEY, JOHN PAUL Member of “DZS LAND & MINERALS, LLC” COLLEGE STATION SPIVEY, JOHN W. Manager of “SIBLEY GAS FIELD VENTURE, L.L.C.” HOUSTON",-0.0033797873184084892,New Orleans,29.95465,-90.07507,,,,,,
GMU,GMU_2250,2020-07-29 19:11:44,"- He has 28 different LLC’s under his name some of which are still active (one of them being Kallaco) Here are all of the LLC’s under John Spivey the “CEO of Kallaco”: SPIVEY, JOHN Agent of “S6-LZS, LLC” NEW ORLEANS SPIVEY, JOHN Member of “S6-LZS, LLC” NEW ORLEANS SPIVEY, JOHN Agent of “S6-RBT, LLC” NEW ORLEANS SPIVEY, JOHN Member of “S6-RBT, LLC” NEW ORLEANS SPIVEY, JOHN Agent of “S6 HOLDINGS, LLC” NEW ORLEANS SPIVEY, JOHN Member of “S6 HOLDINGS, LLC” NEW ORLEANS SPIVEY, JOHN Agent of “S6 - SHP LLC” NEW ORLEANS SPIVEY, JOHN Member of “S6 - SHP LLC” NEW ORLEANS SPIVEY, JOHN Agent of “SHP MANAGEMENT GROUP, LLC” NEW ORLEANS SPIVEY, JOHN Manager of “SHP MANAGEMENT GROUP, LLC” NEW ORLEANS SPIVEY, JOHN Agent of “SPIVEY & COMPANY, INC.” NEW ORLEANS SPIVEY, JOHN President of “SPIVEY & COMPANY, INC.” NEW ORLEANS SPIVEY, JOHN Director of “SPIVEY & COMPANY, INC.” NEW ORLEANS SPIVEY, JOHN Manager of “ENGAGEDX, LLC” NEW ORLEANS SPIVEY, JOHN Manager of “ENGAGESP, LLC” NEW ORLEANS SPIVEY, JOHN Agent of “ENGAGEU, LLC” NEW ORLEANS SPIVEY, JOHN Manager of “ENGAGEU, LLC” NEW ORLEANS SPIVEY, JOHN Agent of “UNO HEALTH INTERNATIONAL INC.” NEW ORLEANS SPIVEY, JOHN President of “UNO HEALTH INTERNATIONAL INC.” NEW ORLEANS SPIVEY, JOHN Agent of “ENGAGEDX, LLC” NEW ORLEANS SPIVEY, JOHN Agent of “ENGAGESP, LLC” NEW ORLEANS SPIVEY, JOHN Manager of “SUMMIT HEALTH STRATEGIES, LLC” NEW ORLEANS SPIVEY, JOHN Agent of “AVAILIANT HEALTHCARE STRATEGIES, LLC” NEW ORLEANS SPIVEY, JOHN Manager of “AVAILIANT HEALTHCARE STRATEGIES, LLC” NEW ORLEANS SPIVEY, JOHN Agent of “KALLACO, LLC” NEW ORLEANS SPIVEY, JOHN Manager of “KALLACO, LLC” NEW ORLEANS SPIVEY, JOHN PAUL Member of “DZS LAND & MINERALS, LLC” COLLEGE STATION SPIVEY, JOHN W. Manager of “SIBLEY GAS FIELD VENTURE, L.L.C.” HOUSTON",-0.0033797873184084892,New Orleans,29.95465,-90.07507,,,,,,
GMU,GMU_2250,2020-07-29 19:11:44,"- He has 28 different LLC’s under his name some of which are still active (one of them being Kallaco) Here are all of the LLC’s under John Spivey the “CEO of Kallaco”: SPIVEY, JOHN Agent of “S6-LZS, LLC” NEW ORLEANS SPIVEY, JOHN Member of “S6-LZS, LLC” NEW ORLEANS SPIVEY, JOHN Agent of “S6-RBT, LLC” NEW ORLEANS SPIVEY, JOHN Member of “S6-RBT, LLC” NEW ORLEANS SPIVEY, JOHN Agent of “S6 HOLDINGS, LLC” NEW ORLEANS SPIVEY, JOHN Member of “S6 HOLDINGS, LLC” NEW ORLEANS SPIVEY, JOHN Agent of “S6 - SHP LLC” NEW ORLEANS SPIVEY, JOHN Member of “S6 - SHP LLC” NEW ORLEANS SPIVEY, JOHN Agent of “SHP MANAGEMENT GROUP, LLC” NEW ORLEANS SPIVEY, JOHN Manager of “SHP MANAGEMENT GROUP, LLC” NEW ORLEANS SPIVEY, JOHN Agent of “SPIVEY & COMPANY, INC.” NEW ORLEANS SPIVEY, JOHN President of “SPIVEY & COMPANY, INC.” NEW ORLEANS SPIVEY, JOHN Director of “SPIVEY & COMPANY, INC.” NEW ORLEANS SPIVEY, JOHN Manager of “ENGAGEDX, LLC” NEW ORLEANS SPIVEY, JOHN Manager of “ENGAGESP, LLC” NEW ORLEANS SPIVEY, JOHN Agent of “ENGAGEU, LLC” NEW ORLEANS SPIVEY, JOHN Manager of “ENGAGEU, LLC” NEW ORLEANS SPIVEY, JOHN Agent of “UNO HEALTH INTERNATIONAL INC.” NEW ORLEANS SPIVEY, JOHN President of “UNO HEALTH INTERNATIONAL INC.” NEW ORLEANS SPIVEY, JOHN Agent of “ENGAGEDX, LLC” NEW ORLEANS SPIVEY, JOHN Agent of “ENGAGESP, LLC” NEW ORLEANS SPIVEY, JOHN Manager of “SUMMIT HEALTH STRATEGIES, LLC” NEW ORLEANS SPIVEY, JOHN Agent of “AVAILIANT HEALTHCARE STRATEGIES, LLC” NEW ORLEANS SPIVEY, JOHN Manager of “AVAILIANT HEALTHCARE STRATEGIES, LLC” NEW ORLEANS SPIVEY, JOHN Agent of “KALLACO, LLC” NEW ORLEANS SPIVEY, JOHN Manager of “KALLACO, LLC” NEW ORLEANS SPIVEY, JOHN PAUL Member of “DZS LAND & MINERALS, LLC” COLLEGE STATION SPIVEY, JOHN W. Manager of “SIBLEY GAS FIELD VENTURE, L.L.C.” HOUSTON",-0.0033797873184084892,New Orleans,29.95465,-90.07507,,,,,,
GMU,GMU_2250,2020-07-29 19:11:44,"- He has 28 different LLC’s under his name some of which are still active (one of them being Kallaco) Here are all of the LLC’s under John Spivey the “CEO of Kallaco”: SPIVEY, JOHN Agent of “S6-LZS, LLC” NEW ORLEANS SPIVEY, JOHN Member of “S6-LZS, LLC” NEW ORLEANS SPIVEY, JOHN Agent of “S6-RBT, LLC” NEW ORLEANS SPIVEY, JOHN Member of “S6-RBT, LLC” NEW ORLEANS SPIVEY, JOHN Agent of “S6 HOLDINGS, LLC” NEW ORLEANS SPIVEY, JOHN Member of “S6 HOLDINGS, LLC” NEW ORLEANS SPIVEY, JOHN Agent of “S6 - SHP LLC” NEW ORLEANS SPIVEY, JOHN Member of “S6 - SHP LLC” NEW ORLEANS SPIVEY, JOHN Agent of “SHP MANAGEMENT GROUP, LLC” NEW ORLEANS SPIVEY, JOHN Manager of “SHP MANAGEMENT GROUP, LLC” NEW ORLEANS SPIVEY, JOHN Agent of “SPIVEY & COMPANY, INC.” NEW ORLEANS SPIVEY, JOHN President of “SPIVEY & COMPANY, INC.” NEW ORLEANS SPIVEY, JOHN Director of “SPIVEY & COMPANY, INC.” NEW ORLEANS SPIVEY, JOHN Manager of “ENGAGEDX, LLC” NEW ORLEANS SPIVEY, JOHN Manager of “ENGAGESP, LLC” NEW ORLEANS SPIVEY, JOHN Agent of “ENGAGEU, LLC” NEW ORLEANS SPIVEY, JOHN Manager of “ENGAGEU, LLC” NEW ORLEANS SPIVEY, JOHN Agent of “UNO HEALTH INTERNATIONAL INC.” NEW ORLEANS SPIVEY, JOHN President of “UNO HEALTH INTERNATIONAL INC.” NEW ORLEANS SPIVEY, JOHN Agent of “ENGAGEDX, LLC” NEW ORLEANS SPIVEY, JOHN Agent of “ENGAGESP, LLC” NEW ORLEANS SPIVEY, JOHN Manager of “SUMMIT HEALTH STRATEGIES, LLC” NEW ORLEANS SPIVEY, JOHN Agent of “AVAILIANT HEALTHCARE STRATEGIES, LLC” NEW ORLEANS SPIVEY, JOHN Manager of “AVAILIANT HEALTHCARE STRATEGIES, LLC” NEW ORLEANS SPIVEY, JOHN Agent of “KALLACO, LLC” NEW ORLEANS SPIVEY, JOHN Manager of “KALLACO, LLC” NEW ORLEANS SPIVEY, JOHN PAUL Member of “DZS LAND & MINERALS, LLC” COLLEGE STATION SPIVEY, JOHN W. Manager of “SIBLEY GAS FIELD VENTURE, L.L.C.” HOUSTON",-0.0033797873184084892,New Orleans,29.95465,-90.07507,,,,,,
GMU,GMU_2250,2020-07-29 19:11:44,"- He has 28 different LLC’s under his name some of which are still active (one of them being Kallaco) Here are all of the LLC’s under John Spivey the “CEO of Kallaco”: SPIVEY, JOHN Agent of “S6-LZS, LLC” NEW ORLEANS SPIVEY, JOHN Member of “S6-LZS, LLC” NEW ORLEANS SPIVEY, JOHN Agent of “S6-RBT, LLC” NEW ORLEANS SPIVEY, JOHN Member of “S6-RBT, LLC” NEW ORLEANS SPIVEY, JOHN Agent of “S6 HOLDINGS, LLC” NEW ORLEANS SPIVEY, JOHN Member of “S6 HOLDINGS, LLC” NEW ORLEANS SPIVEY, JOHN Agent of “S6 - SHP LLC” NEW ORLEANS SPIVEY, JOHN Member of “S6 - SHP LLC” NEW ORLEANS SPIVEY, JOHN Agent of “SHP MANAGEMENT GROUP, LLC” NEW ORLEANS SPIVEY, JOHN Manager of “SHP MANAGEMENT GROUP, LLC” NEW ORLEANS SPIVEY, JOHN Agent of “SPIVEY & COMPANY, INC.” NEW ORLEANS SPIVEY, JOHN President of “SPIVEY & COMPANY, INC.” NEW ORLEANS SPIVEY, JOHN Director of “SPIVEY & COMPANY, INC.” NEW ORLEANS SPIVEY, JOHN Manager of “ENGAGEDX, LLC” NEW ORLEANS SPIVEY, JOHN Manager of “ENGAGESP, LLC” NEW ORLEANS SPIVEY, JOHN Agent of “ENGAGEU, LLC” NEW ORLEANS SPIVEY, JOHN Manager of “ENGAGEU, LLC” NEW ORLEANS SPIVEY, JOHN Agent of “UNO HEALTH INTERNATIONAL INC.” NEW ORLEANS SPIVEY, JOHN President of “UNO HEALTH INTERNATIONAL INC.” NEW ORLEANS SPIVEY, JOHN Agent of “ENGAGEDX, LLC” NEW ORLEANS SPIVEY, JOHN Agent of “ENGAGESP, LLC” NEW ORLEANS SPIVEY, JOHN Manager of “SUMMIT HEALTH STRATEGIES, LLC” NEW ORLEANS SPIVEY, JOHN Agent of “AVAILIANT HEALTHCARE STRATEGIES, LLC” NEW ORLEANS SPIVEY, JOHN Manager of “AVAILIANT HEALTHCARE STRATEGIES, LLC” NEW ORLEANS SPIVEY, JOHN Agent of “KALLACO, LLC” NEW ORLEANS SPIVEY, JOHN Manager of “KALLACO, LLC” NEW ORLEANS SPIVEY, JOHN PAUL Member of “DZS LAND & MINERALS, LLC” COLLEGE STATION SPIVEY, JOHN W. Manager of “SIBLEY GAS FIELD VENTURE, L.L.C.” HOUSTON",-0.0033797873184084892,New Orleans,29.95465,-90.07507,,,,,,
GMU,GMU_2250,2020-07-29 19:11:44,"- He has 28 different LLC’s under his name some of which are still active (one of them being Kallaco) Here are all of the LLC’s under John Spivey the “CEO of Kallaco”: SPIVEY, JOHN Agent of “S6-LZS, LLC” NEW ORLEANS SPIVEY, JOHN Member of “S6-LZS, LLC” NEW ORLEANS SPIVEY, JOHN Agent of “S6-RBT, LLC” NEW ORLEANS SPIVEY, JOHN Member of “S6-RBT, LLC” NEW ORLEANS SPIVEY, JOHN Agent of “S6 HOLDINGS, LLC” NEW ORLEANS SPIVEY, JOHN Member of “S6 HOLDINGS, LLC” NEW ORLEANS SPIVEY, JOHN Agent of “S6 - SHP LLC” NEW ORLEANS SPIVEY, JOHN Member of “S6 - SHP LLC” NEW ORLEANS SPIVEY, JOHN Agent of “SHP MANAGEMENT GROUP, LLC” NEW ORLEANS SPIVEY, JOHN Manager of “SHP MANAGEMENT GROUP, LLC” NEW ORLEANS SPIVEY, JOHN Agent of “SPIVEY & COMPANY, INC.” NEW ORLEANS SPIVEY, JOHN President of “SPIVEY & COMPANY, INC.” NEW ORLEANS SPIVEY, JOHN Director of “SPIVEY & COMPANY, INC.” NEW ORLEANS SPIVEY, JOHN Manager of “ENGAGEDX, LLC” NEW ORLEANS SPIVEY, JOHN Manager of “ENGAGESP, LLC” NEW ORLEANS SPIVEY, JOHN Agent of “ENGAGEU, LLC” NEW ORLEANS SPIVEY, JOHN Manager of “ENGAGEU, LLC” NEW ORLEANS SPIVEY, JOHN Agent of “UNO HEALTH INTERNATIONAL INC.” NEW ORLEANS SPIVEY, JOHN President of “UNO HEALTH INTERNATIONAL INC.” NEW ORLEANS SPIVEY, JOHN Agent of “ENGAGEDX, LLC” NEW ORLEANS SPIVEY, JOHN Agent of “ENGAGESP, LLC” NEW ORLEANS SPIVEY, JOHN Manager of “SUMMIT HEALTH STRATEGIES, LLC” NEW ORLEANS SPIVEY, JOHN Agent of “AVAILIANT HEALTHCARE STRATEGIES, LLC” NEW ORLEANS SPIVEY, JOHN Manager of “AVAILIANT HEALTHCARE STRATEGIES, LLC” NEW ORLEANS SPIVEY, JOHN Agent of “KALLACO, LLC” NEW ORLEANS SPIVEY, JOHN Manager of “KALLACO, LLC” NEW ORLEANS SPIVEY, JOHN PAUL Member of “DZS LAND & MINERALS, LLC” COLLEGE STATION SPIVEY, JOHN W. Manager of “SIBLEY GAS FIELD VENTURE, L.L.C.” HOUSTON",-0.0033797873184084892,New Orleans,29.95465,-90.07507,,,,,,
GMU,GMU_2250,2020-07-29 19:11:44,"- He has 28 different LLC’s under his name some of which are still active (one of them being Kallaco) Here are all of the LLC’s under John Spivey the “CEO of Kallaco”: SPIVEY, JOHN Agent of “S6-LZS, LLC” NEW ORLEANS SPIVEY, JOHN Member of “S6-LZS, LLC” NEW ORLEANS SPIVEY, JOHN Agent of “S6-RBT, LLC” NEW ORLEANS SPIVEY, JOHN Member of “S6-RBT, LLC” NEW ORLEANS SPIVEY, JOHN Agent of “S6 HOLDINGS, LLC” NEW ORLEANS SPIVEY, JOHN Member of “S6 HOLDINGS, LLC” NEW ORLEANS SPIVEY, JOHN Agent of “S6 - SHP LLC” NEW ORLEANS SPIVEY, JOHN Member of “S6 - SHP LLC” NEW ORLEANS SPIVEY, JOHN Agent of “SHP MANAGEMENT GROUP, LLC” NEW ORLEANS SPIVEY, JOHN Manager of “SHP MANAGEMENT GROUP, LLC” NEW ORLEANS SPIVEY, JOHN Agent of “SPIVEY & COMPANY, INC.” NEW ORLEANS SPIVEY, JOHN President of “SPIVEY & COMPANY, INC.” NEW ORLEANS SPIVEY, JOHN Director of “SPIVEY & COMPANY, INC.” NEW ORLEANS SPIVEY, JOHN Manager of “ENGAGEDX, LLC” NEW ORLEANS SPIVEY, JOHN Manager of “ENGAGESP, LLC” NEW ORLEANS SPIVEY, JOHN Agent of “ENGAGEU, LLC” NEW ORLEANS SPIVEY, JOHN Manager of “ENGAGEU, LLC” NEW ORLEANS SPIVEY, JOHN Agent of “UNO HEALTH INTERNATIONAL INC.” NEW ORLEANS SPIVEY, JOHN President of “UNO HEALTH INTERNATIONAL INC.” NEW ORLEANS SPIVEY, JOHN Agent of “ENGAGEDX, LLC” NEW ORLEANS SPIVEY, JOHN Agent of “ENGAGESP, LLC” NEW ORLEANS SPIVEY, JOHN Manager of “SUMMIT HEALTH STRATEGIES, LLC” NEW ORLEANS SPIVEY, JOHN Agent of “AVAILIANT HEALTHCARE STRATEGIES, LLC” NEW ORLEANS SPIVEY, JOHN Manager of “AVAILIANT HEALTHCARE STRATEGIES, LLC” NEW ORLEANS SPIVEY, JOHN Agent of “KALLACO, LLC” NEW ORLEANS SPIVEY, JOHN Manager of “KALLACO, LLC” NEW ORLEANS SPIVEY, JOHN PAUL Member of “DZS LAND & MINERALS, LLC” COLLEGE STATION SPIVEY, JOHN W. Manager of “SIBLEY GAS FIELD VENTURE, L.L.C.” HOUSTON",-0.0033797873184084892,New Orleans,29.95465,-90.07507,,,,,,
GMU,GMU_2250,2020-07-29 19:11:44,"- He has 28 different LLC’s under his name some of which are still active (one of them being Kallaco) Here are all of the LLC’s under John Spivey the “CEO of Kallaco”: SPIVEY, JOHN Agent of “S6-LZS, LLC” NEW ORLEANS SPIVEY, JOHN Member of “S6-LZS, LLC” NEW ORLEANS SPIVEY, JOHN Agent of “S6-RBT, LLC” NEW ORLEANS SPIVEY, JOHN Member of “S6-RBT, LLC” NEW ORLEANS SPIVEY, JOHN Agent of “S6 HOLDINGS, LLC” NEW ORLEANS SPIVEY, JOHN Member of “S6 HOLDINGS, LLC” NEW ORLEANS SPIVEY, JOHN Agent of “S6 - SHP LLC” NEW ORLEANS SPIVEY, JOHN Member of “S6 - SHP LLC” NEW ORLEANS SPIVEY, JOHN Agent of “SHP MANAGEMENT GROUP, LLC” NEW ORLEANS SPIVEY, JOHN Manager of “SHP MANAGEMENT GROUP, LLC” NEW ORLEANS SPIVEY, JOHN Agent of “SPIVEY & COMPANY, INC.” NEW ORLEANS SPIVEY, JOHN President of “SPIVEY & COMPANY, INC.” NEW ORLEANS SPIVEY, JOHN Director of “SPIVEY & COMPANY, INC.” NEW ORLEANS SPIVEY, JOHN Manager of “ENGAGEDX, LLC” NEW ORLEANS SPIVEY, JOHN Manager of “ENGAGESP, LLC” NEW ORLEANS SPIVEY, JOHN Agent of “ENGAGEU, LLC” NEW ORLEANS SPIVEY, JOHN Manager of “ENGAGEU, LLC” NEW ORLEANS SPIVEY, JOHN Agent of “UNO HEALTH INTERNATIONAL INC.” NEW ORLEANS SPIVEY, JOHN President of “UNO HEALTH INTERNATIONAL INC.” NEW ORLEANS SPIVEY, JOHN Agent of “ENGAGEDX, LLC” NEW ORLEANS SPIVEY, JOHN Agent of “ENGAGESP, LLC” NEW ORLEANS SPIVEY, JOHN Manager of “SUMMIT HEALTH STRATEGIES, LLC” NEW ORLEANS SPIVEY, JOHN Agent of “AVAILIANT HEALTHCARE STRATEGIES, LLC” NEW ORLEANS SPIVEY, JOHN Manager of “AVAILIANT HEALTHCARE STRATEGIES, LLC” NEW ORLEANS SPIVEY, JOHN Agent of “KALLACO, LLC” NEW ORLEANS SPIVEY, JOHN Manager of “KALLACO, LLC” NEW ORLEANS SPIVEY, JOHN PAUL Member of “DZS LAND & MINERALS, LLC” COLLEGE STATION SPIVEY, JOHN W. Manager of “SIBLEY GAS FIELD VENTURE, L.L.C.” HOUSTON",-0.0033797873184084892,New Orleans,29.95465,-90.07507,,,,,,
GMU,GMU_2250,2020-07-29 19:11:44,"- He has 28 different LLC’s under his name some of which are still active (one of them being Kallaco) Here are all of the LLC’s under John Spivey the “CEO of Kallaco”: SPIVEY, JOHN Agent of “S6-LZS, LLC” NEW ORLEANS SPIVEY, JOHN Member of “S6-LZS, LLC” NEW ORLEANS SPIVEY, JOHN Agent of “S6-RBT, LLC” NEW ORLEANS SPIVEY, JOHN Member of “S6-RBT, LLC” NEW ORLEANS SPIVEY, JOHN Agent of “S6 HOLDINGS, LLC” NEW ORLEANS SPIVEY, JOHN Member of “S6 HOLDINGS, LLC” NEW ORLEANS SPIVEY, JOHN Agent of “S6 - SHP LLC” NEW ORLEANS SPIVEY, JOHN Member of “S6 - SHP LLC” NEW ORLEANS SPIVEY, JOHN Agent of “SHP MANAGEMENT GROUP, LLC” NEW ORLEANS SPIVEY, JOHN Manager of “SHP MANAGEMENT GROUP, LLC” NEW ORLEANS SPIVEY, JOHN Agent of “SPIVEY & COMPANY, INC.” NEW ORLEANS SPIVEY, JOHN President of “SPIVEY & COMPANY, INC.” NEW ORLEANS SPIVEY, JOHN Director of “SPIVEY & COMPANY, INC.” NEW ORLEANS SPIVEY, JOHN Manager of “ENGAGEDX, LLC” NEW ORLEANS SPIVEY, JOHN Manager of “ENGAGESP, LLC” NEW ORLEANS SPIVEY, JOHN Agent of “ENGAGEU, LLC” NEW ORLEANS SPIVEY, JOHN Manager of “ENGAGEU, LLC” NEW ORLEANS SPIVEY, JOHN Agent of “UNO HEALTH INTERNATIONAL INC.” NEW ORLEANS SPIVEY, JOHN President of “UNO HEALTH INTERNATIONAL INC.” NEW ORLEANS SPIVEY, JOHN Agent of “ENGAGEDX, LLC” NEW ORLEANS SPIVEY, JOHN Agent of “ENGAGESP, LLC” NEW ORLEANS SPIVEY, JOHN Manager of “SUMMIT HEALTH STRATEGIES, LLC” NEW ORLEANS SPIVEY, JOHN Agent of “AVAILIANT HEALTHCARE STRATEGIES, LLC” NEW ORLEANS SPIVEY, JOHN Manager of “AVAILIANT HEALTHCARE STRATEGIES, LLC” NEW ORLEANS SPIVEY, JOHN Agent of “KALLACO, LLC” NEW ORLEANS SPIVEY, JOHN Manager of “KALLACO, LLC” NEW ORLEANS SPIVEY, JOHN PAUL Member of “DZS LAND & MINERALS, LLC” COLLEGE STATION SPIVEY, JOHN W. Manager of “SIBLEY GAS FIELD VENTURE, L.L.C.” HOUSTON",-0.0033797873184084892,New Orleans,29.95465,-90.07507,,,,,,
GMU,GMU_2250,2020-07-29 19:11:44,"- He has 28 different LLC’s under his name some of which are still active (one of them being Kallaco) Here are all of the LLC’s under John Spivey the “CEO of Kallaco”: SPIVEY, JOHN Agent of “S6-LZS, LLC” NEW ORLEANS SPIVEY, JOHN Member of “S6-LZS, LLC” NEW ORLEANS SPIVEY, JOHN Agent of “S6-RBT, LLC” NEW ORLEANS SPIVEY, JOHN Member of “S6-RBT, LLC” NEW ORLEANS SPIVEY, JOHN Agent of “S6 HOLDINGS, LLC” NEW ORLEANS SPIVEY, JOHN Member of “S6 HOLDINGS, LLC” NEW ORLEANS SPIVEY, JOHN Agent of “S6 - SHP LLC” NEW ORLEANS SPIVEY, JOHN Member of “S6 - SHP LLC” NEW ORLEANS SPIVEY, JOHN Agent of “SHP MANAGEMENT GROUP, LLC” NEW ORLEANS SPIVEY, JOHN Manager of “SHP MANAGEMENT GROUP, LLC” NEW ORLEANS SPIVEY, JOHN Agent of “SPIVEY & COMPANY, INC.” NEW ORLEANS SPIVEY, JOHN President of “SPIVEY & COMPANY, INC.” NEW ORLEANS SPIVEY, JOHN Director of “SPIVEY & COMPANY, INC.” NEW ORLEANS SPIVEY, JOHN Manager of “ENGAGEDX, LLC” NEW ORLEANS SPIVEY, JOHN Manager of “ENGAGESP, LLC” NEW ORLEANS SPIVEY, JOHN Agent of “ENGAGEU, LLC” NEW ORLEANS SPIVEY, JOHN Manager of “ENGAGEU, LLC” NEW ORLEANS SPIVEY, JOHN Agent of “UNO HEALTH INTERNATIONAL INC.” NEW ORLEANS SPIVEY, JOHN President of “UNO HEALTH INTERNATIONAL INC.” NEW ORLEANS SPIVEY, JOHN Agent of “ENGAGEDX, LLC” NEW ORLEANS SPIVEY, JOHN Agent of “ENGAGESP, LLC” NEW ORLEANS SPIVEY, JOHN Manager of “SUMMIT HEALTH STRATEGIES, LLC” NEW ORLEANS SPIVEY, JOHN Agent of “AVAILIANT HEALTHCARE STRATEGIES, LLC” NEW ORLEANS SPIVEY, JOHN Manager of “AVAILIANT HEALTHCARE STRATEGIES, LLC” NEW ORLEANS SPIVEY, JOHN Agent of “KALLACO, LLC” NEW ORLEANS SPIVEY, JOHN Manager of “KALLACO, LLC” NEW ORLEANS SPIVEY, JOHN PAUL Member of “DZS LAND & MINERALS, LLC” COLLEGE STATION SPIVEY, JOHN W. Manager of “SIBLEY GAS FIELD VENTURE, L.L.C.” HOUSTON",-0.0033797873184084892,New Orleans,29.95465,-90.07507,,,,,,
GMU,GMU_2250,2020-07-29 19:11:44,"- He has 28 different LLC’s under his name some of which are still active (one of them being Kallaco) Here are all of the LLC’s under John Spivey the “CEO of Kallaco”: SPIVEY, JOHN Agent of “S6-LZS, LLC” NEW ORLEANS SPIVEY, JOHN Member of “S6-LZS, LLC” NEW ORLEANS SPIVEY, JOHN Agent of “S6-RBT, LLC” NEW ORLEANS SPIVEY, JOHN Member of “S6-RBT, LLC” NEW ORLEANS SPIVEY, JOHN Agent of “S6 HOLDINGS, LLC” NEW ORLEANS SPIVEY, JOHN Member of “S6 HOLDINGS, LLC” NEW ORLEANS SPIVEY, JOHN Agent of “S6 - SHP LLC” NEW ORLEANS SPIVEY, JOHN Member of “S6 - SHP LLC” NEW ORLEANS SPIVEY, JOHN Agent of “SHP MANAGEMENT GROUP, LLC” NEW ORLEANS SPIVEY, JOHN Manager of “SHP MANAGEMENT GROUP, LLC” NEW ORLEANS SPIVEY, JOHN Agent of “SPIVEY & COMPANY, INC.” NEW ORLEANS SPIVEY, JOHN President of “SPIVEY & COMPANY, INC.” NEW ORLEANS SPIVEY, JOHN Director of “SPIVEY & COMPANY, INC.” NEW ORLEANS SPIVEY, JOHN Manager of “ENGAGEDX, LLC” NEW ORLEANS SPIVEY, JOHN Manager of “ENGAGESP, LLC” NEW ORLEANS SPIVEY, JOHN Agent of “ENGAGEU, LLC” NEW ORLEANS SPIVEY, JOHN Manager of “ENGAGEU, LLC” NEW ORLEANS SPIVEY, JOHN Agent of “UNO HEALTH INTERNATIONAL INC.” NEW ORLEANS SPIVEY, JOHN President of “UNO HEALTH INTERNATIONAL INC.” NEW ORLEANS SPIVEY, JOHN Agent of “ENGAGEDX, LLC” NEW ORLEANS SPIVEY, JOHN Agent of “ENGAGESP, LLC” NEW ORLEANS SPIVEY, JOHN Manager of “SUMMIT HEALTH STRATEGIES, LLC” NEW ORLEANS SPIVEY, JOHN Agent of “AVAILIANT HEALTHCARE STRATEGIES, LLC” NEW ORLEANS SPIVEY, JOHN Manager of “AVAILIANT HEALTHCARE STRATEGIES, LLC” NEW ORLEANS SPIVEY, JOHN Agent of “KALLACO, LLC” NEW ORLEANS SPIVEY, JOHN Manager of “KALLACO, LLC” NEW ORLEANS SPIVEY, JOHN PAUL Member of “DZS LAND & MINERALS, LLC” COLLEGE STATION SPIVEY, JOHN W. Manager of “SIBLEY GAS FIELD VENTURE, L.L.C.” HOUSTON",-0.0033797873184084892,New Orleans,29.95465,-90.07507,,,,,,
GMU,GMU_2250,2020-07-29 19:11:44,"- He has 28 different LLC’s under his name some of which are still active (one of them being Kallaco) Here are all of the LLC’s under John Spivey the “CEO of Kallaco”: SPIVEY, JOHN Agent of “S6-LZS, LLC” NEW ORLEANS SPIVEY, JOHN Member of “S6-LZS, LLC” NEW ORLEANS SPIVEY, JOHN Agent of “S6-RBT, LLC” NEW ORLEANS SPIVEY, JOHN Member of “S6-RBT, LLC” NEW ORLEANS SPIVEY, JOHN Agent of “S6 HOLDINGS, LLC” NEW ORLEANS SPIVEY, JOHN Member of “S6 HOLDINGS, LLC” NEW ORLEANS SPIVEY, JOHN Agent of “S6 - SHP LLC” NEW ORLEANS SPIVEY, JOHN Member of “S6 - SHP LLC” NEW ORLEANS SPIVEY, JOHN Agent of “SHP MANAGEMENT GROUP, LLC” NEW ORLEANS SPIVEY, JOHN Manager of “SHP MANAGEMENT GROUP, LLC” NEW ORLEANS SPIVEY, JOHN Agent of “SPIVEY & COMPANY, INC.” NEW ORLEANS SPIVEY, JOHN President of “SPIVEY & COMPANY, INC.” NEW ORLEANS SPIVEY, JOHN Director of “SPIVEY & COMPANY, INC.” NEW ORLEANS SPIVEY, JOHN Manager of “ENGAGEDX, LLC” NEW ORLEANS SPIVEY, JOHN Manager of “ENGAGESP, LLC” NEW ORLEANS SPIVEY, JOHN Agent of “ENGAGEU, LLC” NEW ORLEANS SPIVEY, JOHN Manager of “ENGAGEU, LLC” NEW ORLEANS SPIVEY, JOHN Agent of “UNO HEALTH INTERNATIONAL INC.” NEW ORLEANS SPIVEY, JOHN President of “UNO HEALTH INTERNATIONAL INC.” NEW ORLEANS SPIVEY, JOHN Agent of “ENGAGEDX, LLC” NEW ORLEANS SPIVEY, JOHN Agent of “ENGAGESP, LLC” NEW ORLEANS SPIVEY, JOHN Manager of “SUMMIT HEALTH STRATEGIES, LLC” NEW ORLEANS SPIVEY, JOHN Agent of “AVAILIANT HEALTHCARE STRATEGIES, LLC” NEW ORLEANS SPIVEY, JOHN Manager of “AVAILIANT HEALTHCARE STRATEGIES, LLC” NEW ORLEANS SPIVEY, JOHN Agent of “KALLACO, LLC” NEW ORLEANS SPIVEY, JOHN Manager of “KALLACO, LLC” NEW ORLEANS SPIVEY, JOHN PAUL Member of “DZS LAND & MINERALS, LLC” COLLEGE STATION SPIVEY, JOHN W. Manager of “SIBLEY GAS FIELD VENTURE, L.L.C.” HOUSTON",-0.0033797873184084892,New Orleans,29.95465,-90.07507,,,,,,
GMU,GMU_2250,2020-07-29 19:11:44,"- He has 28 different LLC’s under his name some of which are still active (one of them being Kallaco) Here are all of the LLC’s under John Spivey the “CEO of Kallaco”: SPIVEY, JOHN Agent of “S6-LZS, LLC” NEW ORLEANS SPIVEY, JOHN Member of “S6-LZS, LLC” NEW ORLEANS SPIVEY, JOHN Agent of “S6-RBT, LLC” NEW ORLEANS SPIVEY, JOHN Member of “S6-RBT, LLC” NEW ORLEANS SPIVEY, JOHN Agent of “S6 HOLDINGS, LLC” NEW ORLEANS SPIVEY, JOHN Member of “S6 HOLDINGS, LLC” NEW ORLEANS SPIVEY, JOHN Agent of “S6 - SHP LLC” NEW ORLEANS SPIVEY, JOHN Member of “S6 - SHP LLC” NEW ORLEANS SPIVEY, JOHN Agent of “SHP MANAGEMENT GROUP, LLC” NEW ORLEANS SPIVEY, JOHN Manager of “SHP MANAGEMENT GROUP, LLC” NEW ORLEANS SPIVEY, JOHN Agent of “SPIVEY & COMPANY, INC.” NEW ORLEANS SPIVEY, JOHN President of “SPIVEY & COMPANY, INC.” NEW ORLEANS SPIVEY, JOHN Director of “SPIVEY & COMPANY, INC.” NEW ORLEANS SPIVEY, JOHN Manager of “ENGAGEDX, LLC” NEW ORLEANS SPIVEY, JOHN Manager of “ENGAGESP, LLC” NEW ORLEANS SPIVEY, JOHN Agent of “ENGAGEU, LLC” NEW ORLEANS SPIVEY, JOHN Manager of “ENGAGEU, LLC” NEW ORLEANS SPIVEY, JOHN Agent of “UNO HEALTH INTERNATIONAL INC.” NEW ORLEANS SPIVEY, JOHN President of “UNO HEALTH INTERNATIONAL INC.” NEW ORLEANS SPIVEY, JOHN Agent of “ENGAGEDX, LLC” NEW ORLEANS SPIVEY, JOHN Agent of “ENGAGESP, LLC” NEW ORLEANS SPIVEY, JOHN Manager of “SUMMIT HEALTH STRATEGIES, LLC” NEW ORLEANS SPIVEY, JOHN Agent of “AVAILIANT HEALTHCARE STRATEGIES, LLC” NEW ORLEANS SPIVEY, JOHN Manager of “AVAILIANT HEALTHCARE STRATEGIES, LLC” NEW ORLEANS SPIVEY, JOHN Agent of “KALLACO, LLC” NEW ORLEANS SPIVEY, JOHN Manager of “KALLACO, LLC” NEW ORLEANS SPIVEY, JOHN PAUL Member of “DZS LAND & MINERALS, LLC” COLLEGE STATION SPIVEY, JOHN W. Manager of “SIBLEY GAS FIELD VENTURE, L.L.C.” HOUSTON",-0.0033797873184084892,New Orleans,29.95465,-90.07507,,,,,,
GMU,GMU_2250,2020-07-29 19:11:44,"- He has 28 different LLC’s under his name some of which are still active (one of them being Kallaco) Here are all of the LLC’s under John Spivey the “CEO of Kallaco”: SPIVEY, JOHN Agent of “S6-LZS, LLC” NEW ORLEANS SPIVEY, JOHN Member of “S6-LZS, LLC” NEW ORLEANS SPIVEY, JOHN Agent of “S6-RBT, LLC” NEW ORLEANS SPIVEY, JOHN Member of “S6-RBT, LLC” NEW ORLEANS SPIVEY, JOHN Agent of “S6 HOLDINGS, LLC” NEW ORLEANS SPIVEY, JOHN Member of “S6 HOLDINGS, LLC” NEW ORLEANS SPIVEY, JOHN Agent of “S6 - SHP LLC” NEW ORLEANS SPIVEY, JOHN Member of “S6 - SHP LLC” NEW ORLEANS SPIVEY, JOHN Agent of “SHP MANAGEMENT GROUP, LLC” NEW ORLEANS SPIVEY, JOHN Manager of “SHP MANAGEMENT GROUP, LLC” NEW ORLEANS SPIVEY, JOHN Agent of “SPIVEY & COMPANY, INC.” NEW ORLEANS SPIVEY, JOHN President of “SPIVEY & COMPANY, INC.” NEW ORLEANS SPIVEY, JOHN Director of “SPIVEY & COMPANY, INC.” NEW ORLEANS SPIVEY, JOHN Manager of “ENGAGEDX, LLC” NEW ORLEANS SPIVEY, JOHN Manager of “ENGAGESP, LLC” NEW ORLEANS SPIVEY, JOHN Agent of “ENGAGEU, LLC” NEW ORLEANS SPIVEY, JOHN Manager of “ENGAGEU, LLC” NEW ORLEANS SPIVEY, JOHN Agent of “UNO HEALTH INTERNATIONAL INC.” NEW ORLEANS SPIVEY, JOHN President of “UNO HEALTH INTERNATIONAL INC.” NEW ORLEANS SPIVEY, JOHN Agent of “ENGAGEDX, LLC” NEW ORLEANS SPIVEY, JOHN Agent of “ENGAGESP, LLC” NEW ORLEANS SPIVEY, JOHN Manager of “SUMMIT HEALTH STRATEGIES, LLC” NEW ORLEANS SPIVEY, JOHN Agent of “AVAILIANT HEALTHCARE STRATEGIES, LLC” NEW ORLEANS SPIVEY, JOHN Manager of “AVAILIANT HEALTHCARE STRATEGIES, LLC” NEW ORLEANS SPIVEY, JOHN Agent of “KALLACO, LLC” NEW ORLEANS SPIVEY, JOHN Manager of “KALLACO, LLC” NEW ORLEANS SPIVEY, JOHN PAUL Member of “DZS LAND & MINERALS, LLC” COLLEGE STATION SPIVEY, JOHN W. Manager of “SIBLEY GAS FIELD VENTURE, L.L.C.” HOUSTON",-0.0033797873184084892,New Orleans,29.95465,-90.07507,,,,,,
GMU,GMU_2250,2020-07-29 19:11:44,"- He has 28 different LLC’s under his name some of which are still active (one of them being Kallaco) Here are all of the LLC’s under John Spivey the “CEO of Kallaco”: SPIVEY, JOHN Agent of “S6-LZS, LLC” NEW ORLEANS SPIVEY, JOHN Member of “S6-LZS, LLC” NEW ORLEANS SPIVEY, JOHN Agent of “S6-RBT, LLC” NEW ORLEANS SPIVEY, JOHN Member of “S6-RBT, LLC” NEW ORLEANS SPIVEY, JOHN Agent of “S6 HOLDINGS, LLC” NEW ORLEANS SPIVEY, JOHN Member of “S6 HOLDINGS, LLC” NEW ORLEANS SPIVEY, JOHN Agent of “S6 - SHP LLC” NEW ORLEANS SPIVEY, JOHN Member of “S6 - SHP LLC” NEW ORLEANS SPIVEY, JOHN Agent of “SHP MANAGEMENT GROUP, LLC” NEW ORLEANS SPIVEY, JOHN Manager of “SHP MANAGEMENT GROUP, LLC” NEW ORLEANS SPIVEY, JOHN Agent of “SPIVEY & COMPANY, INC.” NEW ORLEANS SPIVEY, JOHN President of “SPIVEY & COMPANY, INC.” NEW ORLEANS SPIVEY, JOHN Director of “SPIVEY & COMPANY, INC.” NEW ORLEANS SPIVEY, JOHN Manager of “ENGAGEDX, LLC” NEW ORLEANS SPIVEY, JOHN Manager of “ENGAGESP, LLC” NEW ORLEANS SPIVEY, JOHN Agent of “ENGAGEU, LLC” NEW ORLEANS SPIVEY, JOHN Manager of “ENGAGEU, LLC” NEW ORLEANS SPIVEY, JOHN Agent of “UNO HEALTH INTERNATIONAL INC.” NEW ORLEANS SPIVEY, JOHN President of “UNO HEALTH INTERNATIONAL INC.” NEW ORLEANS SPIVEY, JOHN Agent of “ENGAGEDX, LLC” NEW ORLEANS SPIVEY, JOHN Agent of “ENGAGESP, LLC” NEW ORLEANS SPIVEY, JOHN Manager of “SUMMIT HEALTH STRATEGIES, LLC” NEW ORLEANS SPIVEY, JOHN Agent of “AVAILIANT HEALTHCARE STRATEGIES, LLC” NEW ORLEANS SPIVEY, JOHN Manager of “AVAILIANT HEALTHCARE STRATEGIES, LLC” NEW ORLEANS SPIVEY, JOHN Agent of “KALLACO, LLC” NEW ORLEANS SPIVEY, JOHN Manager of “KALLACO, LLC” NEW ORLEANS SPIVEY, JOHN PAUL Member of “DZS LAND & MINERALS, LLC” COLLEGE STATION SPIVEY, JOHN W. Manager of “SIBLEY GAS FIELD VENTURE, L.L.C.” HOUSTON",-0.0033797873184084892,New Orleans,29.95465,-90.07507,,,,,,
GMU,GMU_2250,2020-07-29 19:11:44,"- He has 28 different LLC’s under his name some of which are still active (one of them being Kallaco) Here are all of the LLC’s under John Spivey the “CEO of Kallaco”: SPIVEY, JOHN Agent of “S6-LZS, LLC” NEW ORLEANS SPIVEY, JOHN Member of “S6-LZS, LLC” NEW ORLEANS SPIVEY, JOHN Agent of “S6-RBT, LLC” NEW ORLEANS SPIVEY, JOHN Member of “S6-RBT, LLC” NEW ORLEANS SPIVEY, JOHN Agent of “S6 HOLDINGS, LLC” NEW ORLEANS SPIVEY, JOHN Member of “S6 HOLDINGS, LLC” NEW ORLEANS SPIVEY, JOHN Agent of “S6 - SHP LLC” NEW ORLEANS SPIVEY, JOHN Member of “S6 - SHP LLC” NEW ORLEANS SPIVEY, JOHN Agent of “SHP MANAGEMENT GROUP, LLC” NEW ORLEANS SPIVEY, JOHN Manager of “SHP MANAGEMENT GROUP, LLC” NEW ORLEANS SPIVEY, JOHN Agent of “SPIVEY & COMPANY, INC.” NEW ORLEANS SPIVEY, JOHN President of “SPIVEY & COMPANY, INC.” NEW ORLEANS SPIVEY, JOHN Director of “SPIVEY & COMPANY, INC.” NEW ORLEANS SPIVEY, JOHN Manager of “ENGAGEDX, LLC” NEW ORLEANS SPIVEY, JOHN Manager of “ENGAGESP, LLC” NEW ORLEANS SPIVEY, JOHN Agent of “ENGAGEU, LLC” NEW ORLEANS SPIVEY, JOHN Manager of “ENGAGEU, LLC” NEW ORLEANS SPIVEY, JOHN Agent of “UNO HEALTH INTERNATIONAL INC.” NEW ORLEANS SPIVEY, JOHN President of “UNO HEALTH INTERNATIONAL INC.” NEW ORLEANS SPIVEY, JOHN Agent of “ENGAGEDX, LLC” NEW ORLEANS SPIVEY, JOHN Agent of “ENGAGESP, LLC” NEW ORLEANS SPIVEY, JOHN Manager of “SUMMIT HEALTH STRATEGIES, LLC” NEW ORLEANS SPIVEY, JOHN Agent of “AVAILIANT HEALTHCARE STRATEGIES, LLC” NEW ORLEANS SPIVEY, JOHN Manager of “AVAILIANT HEALTHCARE STRATEGIES, LLC” NEW ORLEANS SPIVEY, JOHN Agent of “KALLACO, LLC” NEW ORLEANS SPIVEY, JOHN Manager of “KALLACO, LLC” NEW ORLEANS SPIVEY, JOHN PAUL Member of “DZS LAND & MINERALS, LLC” COLLEGE STATION SPIVEY, JOHN W. Manager of “SIBLEY GAS FIELD VENTURE, L.L.C.” HOUSTON",-0.0033797873184084892,New Orleans,29.95465,-90.07507,,,,,,
GMU,GMU_2283,2020-07-30 09:42:37,"I wouldn't trust a lawn service with a web site like this to mow my lawn, much less handle medical testing for the largest university in the state of Virginia.",-0.8497973680496216,Virginia,37.54812,-77.44675,,,,,,
GMU,GMU_2295,2020-07-31 14:08:03,So now we have no idea if we're actually clear or not and might have just exposed each other and may be the start of an outbreak in Richmond.,-0.5362196564674377,Richmond,37.55376,-77.46026,,,,,,
GMU,GMU_2416,2024-12-01 07:54:21,Please converse with other students with respect and keep in mind that Mason is an academic environment.,0.16133759915828705,Mason County,43.95625,-86.42258,,,,,,
GMU,GMU_2419,2024-12-01 07:54:56,Please converse with other students with respect and keep in mind that Mason is an academic environment.,0.16133759915828705,Mason County,43.95625,-86.42258,,,,,,
GMU,GMU_2438,2024-11-17 15:47:52,wanted: gmu student who killed a fox at Rappahannock parking deck,-0.6669384241104126,Rappahannock County,38.68471,-78.15925,,,,,,
GMU,GMU_2466,2024-11-17 16:08:54,I almost saw one (not sure if the same one; there's multiple in the area) bite it on Roberts Road coming into campus this other day.,0.004436007235199213,Roberts Road Church,41.73781,-87.81867,,,,,,
GMU,GMU_2522,2025-08-25 03:54:27,Idk why this reminded of Bing Bong from Peak… I might be cooked in the head.,-0.5468247532844543,Peak,-39.22824,175.09021,,,,,,
GMU,GMU_2555,2020-03-21 12:07:14,But I bet it won’t because...GMU,-0.14798575639724731,Gauriyamau,26.75703,81.79366,,,,,,
GMU,GMU_2659,2021-04-25 18:50:16,And Mason Pond was looking so beautiful lately...,0.9527547359466553,Mason Pond,41.64506,-72.80084,,,,,,
GMU,GMU_2836,2020-08-10 17:56:16,The new brick path to Southside,0.0052903201431035995,Southside,37.86747,-122.25281,,,,,,
GMU,GMU_2861,2020-08-11 22:31:20,I'm still not going to Southside.,-0.6307109594345093,Southside,39.78121,-76.39468,,,,,,
GMU,GMU_2864,2020-08-10 18:11:06,In fact they also moved the statue in between Music Theater and Mason Hall.,0.003093444975093007,Comcast Theatre,41.77984,-72.66934,,,,,,
GMU,GMU_2864,2020-08-10 18:11:06,In fact they also moved the statue in between Music Theater and Mason Hall.,0.003093444975093007,Mason Hall,38.82861,-77.30889,,,,,,
GMU,GMU_2865,2020-08-11 00:18:31,The only other photo I took today is of the new Horizon Building which I can say is almost complete.,0.6626747250556946,Horizon Building,46.82389,-100.81306,,,,,,
GMU,GMU_2872,2020-08-11 17:46:52,Then you can finish the walk by stopping at mason pond and looking at the lake paid for with the tears of grad students forced into near slavery ahhh i love that smell in the morning,0.6243164539337158,Mason Pond,41.64506,-72.80084,,,,,,
GMU,GMU_2904,2025-02-26 00:29:24,Seeing all of the posts about parking on Fairfax campus I'm perfectly happy to never have to go there.,0.17051085829734802,Fairfax,38.84622,-77.30637,,,,,,
GMU,GMU_2968,2020-07-22 16:16:36,"God, I miss waking up from temporary death in Rogers, ordering a Dunkin’ Donuts starship, knocking out for another 40 mins, and then starting my day RIGHT",-0.1851269155740738,Rogers,45.18889,-93.55556,,,,,,
GMU,GMU_3158,2020-07-11 23:46:12,"Ya know, they may have wanted to get GMU to be less of a commuter school... but they have now taken the commute out of school entirely",-0.029955752193927765,Greenville Downtown Airport,34.85031,-82.3509,,,,,,
GMU,GMU_3246,2020-12-10 13:26:32,I think this post and others similar goes to show how people’s experiences at Mason don’t foreshadow others.,0.029718779027462006,Mason County,43.95625,-86.42258,,,,,,
GMU,GMU_3295,2020-09-10 12:43:25,Spain with s silent,-0.011491619050502777,Kingdom of Spain,40.0,-4.0,,,,,,
GMU,GMU_3349,2022-12-11 12:04:57,"I once was already failing a Calc class and my parents still demanded I go to the final because “it’s the principle of the thing”, missed Green Day at a club in DC for $30, got like 40%, and transferred majors",-0.6704044342041016,District of Columbia,38.91706,-77.00025,,,,,,
GMU,GMU_3409,2021-03-28 00:28:12,"The officers’ complaint alleges retaliation for reporting a use of excessive force by a GMU police officer against a handcuffed arrestee, who was taken into custody for a non-violent offense on January 28, 2018, at the EagleBank Arena on the Fairfax GMU campus.",-0.5813348293304443,Fairfax,38.84622,-77.30637,,,,,,
GMU,GMU_3414,2021-03-28 00:28:12,"As a result of the plaintiffs’ attempts to have these allegations of excessive force and false police report properly investigated, GMU has removed the plaintiffs from job duties, demoted or transferred them, and even defamed an officer before the Fairfax County Commonwealth’s Attorney, claiming that he was found to be guilty of dishonesty in his role at the department.",-0.7139868140220642,Commonwealth,38.07486,-78.48723,,,,,,
GMU,GMU_3426,2021-03-28 00:28:12,"Due to the impossibility of finding relief through ordinary internal channels, the officers have filed a complaint in the Circuit Court of Fairfax County, through their attorneys at Simms Showers, LLP, in Leesburg, Virginia.",-0.24622474610805511,Leesburg,39.11566,-77.5636,,,,,,
GMU,GMU_3426,2021-03-28 00:28:12,"Due to the impossibility of finding relief through ordinary internal channels, the officers have filed a complaint in the Circuit Court of Fairfax County, through their attorneys at Simms Showers, LLP, in Leesburg, Virginia.",-0.24622474610805511,Virginia,37.54812,-77.44675,,,,,,
GMU,GMU_3431,2021-03-28 10:29:38,I had to deal with the gmu police back in 2016.,-0.4947165846824646,Greenville Downtown Airport,34.85031,-82.3509,,,,,,
GMU,GMU_3471,2021-04-09 10:26:13,"And if you think that you've been the victim of an illegal action by GMU, I'm sure there's a good looking attorney somewhere in Leesburg Virginia who may be able to help.",0.04752504825592041,Leesburg,39.11566,-77.5636,,,,,,
GMU,GMU_3471,2021-04-09 10:26:13,"And if you think that you've been the victim of an illegal action by GMU, I'm sure there's a good looking attorney somewhere in Leesburg Virginia who may be able to help.",0.04752504825592041,Virginia,37.54812,-77.44675,,,,,,
GMU,GMU_3552,2021-03-28 14:52:17,"Despite failing to get relief and despite his punishment being left in place, about 6 months after the conclusion of the matter, the GMU PD gave him notice that he was placed on the ""Brady List"" at Fairfax County PD.",-0.08759456127882004,Fairfax County,38.83469,-77.27622,,,,,,
GMU,GMU_3571,2021-03-28 14:51:53,The auditor’s final report showed wide-spread violations of Virginia policy and law among the senior leadership command at the GMU Police Department.,-0.6038244366645813,Virginia,37.54812,-77.44675,,,,,,
GMU,GMU_3576,2021-03-28 14:51:53,"Through a hearing before the Office of Employment Dispute Resolution in 2014, it was found that GMU wrongfully failed to promote \[plaintiff 1\] from Sergeant to Lieutenant and wrongfully moved him away from the main GMU campus of Fairfax to the Prince William County satellite campus in retaliation for reporting and participating in the investigator’s 2012 investigation.",-0.6057104468345642,Fairfax,38.84622,-77.30637,,,,,,
GMU,GMU_3576,2021-03-28 14:51:53,"Through a hearing before the Office of Employment Dispute Resolution in 2014, it was found that GMU wrongfully failed to promote \[plaintiff 1\] from Sergeant to Lieutenant and wrongfully moved him away from the main GMU campus of Fairfax to the Prince William County satellite campus in retaliation for reporting and participating in the investigator’s 2012 investigation.",-0.6057104468345642,Prince William County,38.70167,-77.47766,,,,,,
GMU,GMU_3657,2025-10-08 23:39:53,"Can't do much as they harass every student trying to make it to class on time near Mason Pond, but it felt different having them walk up and knock on my window while I was eating lunch and trying to enjoy my short break.",-0.3261319696903229,Mason Pond,41.64506,-72.80084,,,,,,
GMU,GMU_3678,2025-10-09 22:12:07,Liberals would ruin the United States if we would let them and remove God from every aspec of day to day life.,-0.8636364340782166,Territories of the United States,35.27766,-102.35403,,,,,,
GMU,GMU_3806,2025-03-18 18:57:47,"I thought we had it bad, but my gf went to Northeastern in Boston and their parking was 2,000 dollars a year with an even lower chance of getting a spot since a ton of it was street parking",-0.6405684351921082,Boston,42.35843,-71.05977,,,,,,
GMU,GMU_3810,2025-03-18 17:31:14,"should have got west campus pass, never full",-0.1425068974494934,West Campus,34.67943,-82.8396,,,,,,
GMU,GMU_3826,2025-03-18 17:55:30,"dog its like a 15 minute walk I had west campus all 4 years, never once used the bus",0.009221101179718971,West Campus,34.67943,-82.8396,,,,,,
GMU,GMU_3877,2024-11-20 10:23:45,"Even if GMU doesn’t have a social life (it does) you’re right next to DC, can get on the shuttle for free, and ride the metro in for ten bucks.",0.5546192526817322,Greenville Downtown Airport,34.85031,-82.3509,,,,,,
GMU,GMU_3877,2024-11-20 10:23:45,"Even if GMU doesn’t have a social life (it does) you’re right next to DC, can get on the shuttle for free, and ride the metro in for ten bucks.",0.5546192526817322,District of Columbia,38.91706,-77.00025,,,,,,
GMU,GMU_3879,2024-11-20 10:23:45,Plus walk right into downtown Fairfax.,0.011402678675949574,Fairfax,38.84622,-77.30637,,,,,,
GMU,GMU_3887,2024-11-20 09:47:55,Manassas Campus is expanding also in high-demand science sectors.,0.32416602969169617,Strayer University - Manassas Campus,38.80509,-77.50914,,,,,,
GMU,GMU_3900,2024-11-20 20:35:16,"I'm out of state dude, I came down from Massachusetts!",0.009702630341053009,Massachusetts,42.36565,-71.10832,,,,,,
GMU,GMU_3914,2024-11-21 19:24:28,"I’ve lived near George Mason my whole life and even though I go to Georgetown, I can confirm George Mason is a good school.",0.8954304456710815,George Mason University Fairfax Campus,38.83088,-77.30794,,,,,,
GMU,GMU_3915,2024-11-21 19:24:28,"People don’t realize how good it is until you travel outside of North Virginia and see colleges like University of New Haven, Radford, ODU or even University of Delaware to some extent.",0.849760115146637,North Virginia Beach,36.90404,-75.99243,,,,,,
GMU,GMU_3936,2024-11-22 13:39:48,"It is what you make out of it, and tbh, the best part about Mason is the location.",0.718110978603363,Mason County,43.95625,-86.42258,,,,,,
GMU,GMU_3941,2024-11-24 12:01:15,"I had friends at ""party"" schools like WVU and I'm from Charlottesville so I've spent a lot of my life living in UVA's backyard, and I spent time with friends at other schools in the District proper.",0.11738628149032593,Charlottesville,38.02931,-78.47668,,,,,,
GMU,GMU_3941,2024-11-24 12:01:15,"I had friends at ""party"" schools like WVU and I'm from Charlottesville so I've spent a lot of my life living in UVA's backyard, and I spent time with friends at other schools in the District proper.",0.11738628149032593,District 1,40.10481,-80.60424,,,,,,
GMU,GMU_3980,2024-11-21 16:18:16,They're doing this on purpose btw to drive revenue which is what Richmond told Washington to do so.,-0.014908635057508945,Richmond,37.55376,-77.46026,,,,,,
GMU,GMU_3980,2024-11-21 16:18:16,They're doing this on purpose btw to drive revenue which is what Richmond told Washington to do so.,-0.014908635057508945,Washington,47.50012,-120.50147,,,,,,
GMU,GMU_3990,2024-11-20 12:47:45,"The bureaucracy in Mason is so bad, you trynna get some simple things done here you will have to talk to 3 different departments until you can finally talk to someone that’s able to help you.",-0.6646650433540344,Mason,30.74879,-99.23061,,,,,,
GMU,GMU_3999,2024-11-21 00:16:17,Exactly I love being near DC,0.932081401348114,District of Columbia,38.91706,-77.00025,,,,,,
GMU,GMU_4007,2024-11-20 10:38:41,"Here you can easily get a summer job, and if you can’t, you can get a job during the school year since all the people living in nova went down to their jmu, uva, tech schools (granted some people don’t work during school).",0.08486516028642654,Nova,39.73176,-77.81944,,,,,,
GMU,GMU_4007,2024-11-20 10:38:41,"Here you can easily get a summer job, and if you can’t, you can get a job during the school year since all the people living in nova went down to their jmu, uva, tech schools (granted some people don’t work during school).",0.08486516028642654,Jiamusi,46.79711,130.31118,,,,,,
GMU,GMU_4007,2024-11-20 10:38:41,"Here you can easily get a summer job, and if you can’t, you can get a job during the school year since all the people living in nova went down to their jmu, uva, tech schools (granted some people don’t work during school).",0.08486516028642654,Uvalde,29.20968,-99.78617,,,,,,
GMU,GMU_4131,2020-08-29 15:11:46,Lol I did shit like this for indigenous peoples day at gmu and some highways,-0.11785382777452469,Gauriyamau,26.75703,81.79366,,,,,,
GMU,GMU_4175,2024-12-13 01:06:51,"I am a commuter, but Mason became an escape from my life and a vibrant place where I felt like I could totally be myself; amidst the cold winters and the beckoning springs.",0.6826189756393433,Mason,42.5792,-84.44358,,,,,,
GMU,GMU_4190,2024-12-13 01:58:36,But when I decided to change careers and came to Mason....,0.0011758102336898446,Mason County,43.95625,-86.42258,,,,,,
GMU,GMU_4229,2022-04-21 14:48:29,Every currently enrolled GMU student in the U.S. got this email.,-0.00389205664396286,United States,39.76,-98.5,,,,,,
GMU,GMU_4273,2022-04-21 20:40:57,"oh my god this school is in virginia, why am i here….WELL HI EVERYONE mcmaster is in ontario and we say hi to you all :))))",0.5756404995918274,Virginia,44.31639,-79.28444,,,,,,
GMU,GMU_4273,2022-04-21 20:40:57,"oh my god this school is in virginia, why am i here….WELL HI EVERYONE mcmaster is in ontario and we say hi to you all :))))",0.5756404995918274,Ontario,49.25014,-84.49983,,,,,,
GMU,GMU_4335,2023-10-05 02:43:26,"George Mason’s Observatory I don’t see too much posted here about our Observatory that’s on campus, wanted to make a quick post about it!",-0.027923647314310074,Observatory,40.59529,-98.36923,,,,,,
GMU,GMU_4341,2023-10-05 12:46:04,Biggest in Virginia?,0.003028996754437685,Virginia,37.54812,-77.44675,,,,,,
GMU,GMU_4366,2023-10-06 16:31:44,"I’d pass by it every day when I lived at Potomac Heights or was going to the Engineering building, and everytime I said I’ll go in this week.",0.019656728953123093,Potomac Heights,38.92761,-77.10776,,,,,,
GMU,GMU_4379,2023-10-05 10:45:35,Our smaller astronomers really enjoy seeing Saturns rings and Jupiter’s moons on clear nights.,0.8829919099807739,Jupiter,-20.91598,55.57914,,,,,,
GMU,GMU_4385,2023-10-05 11:55:18,I’ve noticed a lot of Mason students don’t even know we have an Observatory - I’ve heard people assume that it was a grain silo or water tower.,-0.3237095773220062,Observatory,40.59529,-98.36923,,,,,,
GMU,GMU_4389,2023-10-05 20:26:57,Our greatest enemy at the Observatory is Enterprise Hall lol.,-0.4936113953590393,Observatory,40.59529,-98.36923,,,,,,
GMU,GMU_4389,2023-10-05 20:26:57,Our greatest enemy at the Observatory is Enterprise Hall lol.,-0.4936113953590393,Enterprise Hall,38.82889,-77.30611,,,,,,
GMU,GMU_4391,2023-10-05 11:00:41,"To attend, head to the lobby of Research Hall, the building connected to the Observatory.",0.0035289993975311518,Harvey Monroe Hall Research Natural Area,37.9602,-119.29849,,,,,,
GMU,GMU_4391,2023-10-05 11:00:41,"To attend, head to the lobby of Research Hall, the building connected to the Observatory.",0.0035289993975311518,Observatory,40.59529,-98.36923,,,,,,
GMU,GMU_4393,2023-10-05 13:47:42,Come by Research Hall at 7:15pm!,0.0790630504488945,Harvey Monroe Hall Research Natural Area,37.9602,-119.29849,,,,,,
GMU,GMU_4401,2023-10-05 12:45:49,"Yep, during other night of the week, the Observatory is used for Research and Astrophotography Projects.",0.006865908857434988,Observatory,40.59529,-98.36923,,,,,,
GMU,GMU_4433,2024-10-07 11:34:38,Most of the foxes in Fairfax are pretty chill around people.,0.6515938639640808,Fairfax,38.84622,-77.30637,,,,,,
GMU,GMU_4445,2022-08-22 17:07:01,As an ibs sufferer 5th floor fenwick is a peak shitting location.,-0.8880786895751953,Fenwick,53.63868,-1.0976,,,,,,
GMU,GMU_4448,2022-08-22 18:03:07,Krug Hall bathrooms are so nasty man.,-0.9560000896453857,Krug Hall,38.8325,-77.30889,,,,,,
GMU,GMU_4449,2022-08-22 19:42:28,There is a one toilet bathroom on the roof of planetary near the telescope.,-0.0022211752366274595,Mannheim Planetary,49.47728,8.49287,,,,,,
GMU,GMU_4450,2022-08-22 19:53:03,"Aquia building is the best, always empty bathrooms and there’s a microwave",0.9607803821563721,Aquia,-10.0745,-77.14475,,,,,,
GMU,GMU_4452,2022-08-22 18:18:43,Personally I would rate Horizon Hall as yellow.,0.23287324607372284,Horizon City Town Hall,31.68359,-106.20183,,,,,,
GMU,GMU_4455,2022-08-22 23:50:32,Remember I almost shit myself on the way from Johnson Center to West Campus at 10:30pm after my last class all the facility bathrooms were closed the softball and baseball bathrooms were also locked I had to shit in the woods off of west campus drive,-0.8488187193870544,Johnson Center,42.2703,-89.0176,,,,,,
GMU,GMU_4455,2022-08-22 23:50:32,Remember I almost shit myself on the way from Johnson Center to West Campus at 10:30pm after my last class all the facility bathrooms were closed the softball and baseball bathrooms were also locked I had to shit in the woods off of west campus drive,-0.8488187193870544,West Campus,34.67943,-82.8396,,,,,,
GMU,GMU_4459,2022-08-23 08:46:37,I shat at building 44 near rogers hall and it was exquisite,0.6174933910369873,Rogers Hall,40.67566,-74.23376,,,,,,
GMU,GMU_4461,2022-08-22 17:06:09,Why is Hanover hall the only dorm with green rating?,-0.08339230716228485,Hanover,41.6426,-72.06535,,,,,,
GMU,GMU_4462,2022-08-22 18:11:32,Carow Hall can be put in the yellow category.,0.0035593064967542887,Carow Hall,38.83139,-77.30111,,,,,,
GMU,GMU_4481,2022-08-23 00:10:12,"I'm gonna be so mad if someone's in my secret Fenwick bathroom next time, I swear.",-0.8425940275192261,Fenwick,41.27093,-72.35369,,,,,,
GMU,GMU_4487,2022-08-22 17:13:24,Hanover is not truly a housing space.,-0.5541194081306458,Hanover,41.6426,-72.06535,,,,,,
GMU,GMU_4489,2022-08-22 17:14:54,Hanover is not technically a dorm building.,-0.05832374468445778,Hanover,41.6426,-72.06535,,,,,,
GMU,GMU_4503,2022-08-23 01:14:23,Well regardless I thiink the top floor study room in horizon has a small bathroom.,0.034321144223213196,Horizon,39.68575,20.88265,,,,,,
GMU,GMU_4523,2020-03-13 15:06:05,"If VT and VCU closed when all of the cases in VA are centered around NOVA, then GMU will close too.",-0.15940448641777039,Nova,39.73176,-77.81944,,,,,,
GMU,GMU_4691,2020-06-20 01:57:38,Earth is healing,0.4740009009838104,Earth,0.0,0.0,,,,,,
GMU,GMU_4696,2020-06-20 20:53:35,They're now delivering food to Atlantis,0.0007686326862312853,Atlantis,44.72142,13.23705,,,,,,
GMU,GMU_4852,2023-10-17 10:35:08,Not as safe as [Legacy Park in Ashburn](https://maps.app.goo.gl/QyDmPnbby64j4myq8),-0.5925998687744141,Legacy Park,27.9209,-82.3468,,,,,,
GMU,GMU_4884,2020-05-13 23:28:54,", because if eagle bank arena....",-0.008885419927537441,Eagle Bank,-30.25118,139.91602,,,,,,
GMU,GMU_4913,2022-02-04 16:26:52,Driving back from a shopping trip in Fair Lakes wasn't fun!,-0.7298294305801392,Hyatt Fair Lakes,38.8588,-77.3867,,,,,,
GMU,GMU_4925,2025-02-10 21:19:13,it’s like a Virginian on the shore of the Potomac river looking out at Maryland,0.0517311617732048,South Fork South Branch Potomac River,39.06761,-78.97308,,,,,,
GMU,GMU_4925,2025-02-10 21:19:13,it’s like a Virginian on the shore of the Potomac river looking out at Maryland,0.0517311617732048,Maryland,39.00039,-76.74997,,,,,,
GMU,GMU_4978,2024-10-28 15:03:20,"Saw one of them chilling near the JC a week or two ago, with a crowd filming.",-0.0039250715635716915,Farrell Building,45.58569,-122.40498,,,,,,
GMU,GMU_5047,2025-10-07 10:45:35,They've been doing this crap since I went to Mason way back in 2011.,-0.9013978242874146,Mason County,43.95625,-86.42258,,,,,,
GMU,GMU_5076,2025-10-07 13:27:11,Ya I saw it when I was going to southside made me loose my appetite.,-0.7115828394889832,Southside,39.78121,-76.39468,,,,,,
GMU,GMU_5085,2025-10-07 14:00:41,There used to be a bus covered in this stuff that drove all over in DC.,-0.14787760376930237,District of Columbia,38.91706,-77.00025,,,,,,
GMU,GMU_5090,2025-10-07 18:30:14,I saw them setting up in front of the Dunkies and thought it was for the construction at Fenwick :(,-0.4030686318874359,Fenwick,53.63868,-1.0976,,,,,,
GMU,GMU_5129,2025-10-07 14:12:59,Right in front of Southside,0.006263247225433588,Southside,39.78121,-76.39468,,,,,,
GMU,GMU_5142,2023-10-08 15:35:51,"It's probably rare for them to be graced with the presence of a student at the top cs/engineering school in the U.S., the MIT of Fairfax County.",0.00875287875533104,United States,39.76,-98.5,,,,,,
GMU,GMU_5142,2023-10-08 15:35:51,"It's probably rare for them to be graced with the presence of a student at the top cs/engineering school in the U.S., the MIT of Fairfax County.",0.00875287875533104,Fairfax County,38.83469,-77.27622,,,,,,
GMU,GMU_5148,2023-10-08 16:36:14,[gif](giphy|12msOFU8oL1eww) The MIT of Fairfax county LOL,0.004591975826770067,Fairfax County,38.83469,-77.27622,,,,,,
GMU,GMU_5167,2023-10-11 23:43:18,"Can’t even say the MIT of Fairfax County cause if you ever move to Silicon Valley once you graduate and you tell people you’re from Fairfax, VA they’ll just assume you went to Thomas Jefferson .",-0.19054707884788513,Fairfax County,38.83469,-77.27622,,,,,,
GMU,GMU_5167,2023-10-11 23:43:18,"Can’t even say the MIT of Fairfax County cause if you ever move to Silicon Valley once you graduate and you tell people you’re from Fairfax, VA they’ll just assume you went to Thomas Jefferson .",-0.19054707884788513,Santa Clara Valley,37.24883,-121.83995,,,,,,
GMU,GMU_5167,2023-10-11 23:43:18,"Can’t even say the MIT of Fairfax County cause if you ever move to Silicon Valley once you graduate and you tell people you’re from Fairfax, VA they’ll just assume you went to Thomas Jefferson .",-0.19054707884788513,Fairfax,38.84622,-77.30637,,,,,,
GMU,GMU_5167,2023-10-11 23:43:18,"Can’t even say the MIT of Fairfax County cause if you ever move to Silicon Valley once you graduate and you tell people you’re from Fairfax, VA they’ll just assume you went to Thomas Jefferson .",-0.19054707884788513,Virginia,37.54812,-77.44675,,,,,,
GMU,GMU_5289,2024-08-30 09:59:16,I wouldn’t expect them to have morals at the Raytheon pipeline,-0.3125997483730316,Raytheon Heliport,42.43065,-71.252,,,,,,
GMU,GMU_5333,2021-02-03 09:34:08,It's between President's Park and the Hub.,0.0028341561555862427,President's Park,39.01111,-84.57306,,,,,,
GMU,GMU_5333,2021-02-03 09:34:08,It's between President's Park and the Hub.,0.0028341561555862427,Hub,36.40217,-119.80903,,,,,,
GMU,GMU_5373,2020-11-30 08:13:41,GMU is one of the cheapest and best value colleges in Virginia and the USA can’t really complain,0.5618529915809631,Virginia,37.54812,-77.44675,,,,,,
GMU,GMU_5373,2020-11-30 08:13:41,GMU is one of the cheapest and best value colleges in Virginia and the USA can’t really complain,0.5618529915809631,United States,39.76,-98.5,,,,,,
GMU,GMU_5380,2020-11-30 19:21:06,"I think about transfering out too, but I don't really know any other schools in Virginia.",-0.04218515008687973,Virginia,37.54812,-77.44675,,,,,,
GMU,GMU_5438,2020-05-29 09:22:36,I graduated in 2018 and I’ll still talk about Robinson and probably refer to the new building as Robinson,0.023382235318422318,Robinson,39.00532,-87.73919,,,,,,
GMU,GMU_5438,2020-05-29 09:22:36,I graduated in 2018 and I’ll still talk about Robinson and probably refer to the new building as Robinson,0.023382235318422318,Robinson,39.00532,-87.73919,,,,,,
GMU,GMU_5521,2020-07-02 19:32:04,"Why is it that you hate how the American government has handled this pandemic, yet you blindly trust them that masks work, when it runs contrary to the common consensus in Europe?",-0.8172153830528259,Europe,48.69096,9.14062,,,,,,
GMU,GMU_5562,2024-04-27 01:31:36,I know you can drown in a bathtub but you'd have to really screw up to drown in the Mason pond.,-0.7220652103424072,Mason County,43.95625,-86.42258,,,,,,
GMU,GMU_5566,2024-04-26 20:31:24,Hell I had to take a behavior class because I took my mask down to sip water in the kitchen room of Taylor hall.,-0.6276288032531738,Taylor Hall,41.68639,-73.89778,,,,,,
GMU,GMU_5670,2020-08-29 18:10:34,"Somebody please remind me why the heck GMU being the largest university in Virginia contracted with a new and shady company that popped out of nowhere for an emergency that involves the life of students, faculty and a good chunk of Fairfax county",-0.8412913084030151,Virginia,37.54812,-77.44675,,,,,,
GMU,GMU_5670,2020-08-29 18:10:34,"Somebody please remind me why the heck GMU being the largest university in Virginia contracted with a new and shady company that popped out of nowhere for an emergency that involves the life of students, faculty and a good chunk of Fairfax county",-0.8412913084030151,Fairfax County,38.83469,-77.27622,,,,,,
GMU,GMU_5685,2020-08-29 19:57:33,Now I wonder why three of the biggest and most important universities of Virginia did that decision.,-5.225906352279708e-05,Virginia,37.54812,-77.44675,,,,,,
GMU,GMU_5692,2020-08-31 18:56:03,"The registration information for Kallaco resolves to a residential neighborhood in New Orleans, it is also designated as the Principle Business Office.",0.0001968496508197859,New Orleans,29.95465,-90.07507,,,,,,
GMU,GMU_5694,2020-08-31 18:56:03,"The Registration Domicile Address resolves to 1209 Orange Street, Wilmington, Delaware.",-0.0004334303957875818,Wilmington,39.74595,-75.54659,,,,,,
GMU,GMU_5694,2020-08-31 18:56:03,"The Registration Domicile Address resolves to 1209 Orange Street, Wilmington, Delaware.",-0.0004334303957875818,Delaware,39.00039,-75.49992,,,,,,
GMU,GMU_5695,2020-08-31 18:56:03,"This is the the same address as the Corporation Trust Company and that address has thousands of companies registered to the same address, due to Delaware's laws regarding incorporation and state taxes.",-0.056098971515893936,Delaware,39.00039,-75.49992,,,,,,
GMU,GMU_5708,2020-08-31 19:25:03,Some states (ahem LA and DE) also make it difficult by not showing members of a company.,-0.6390085816383362,Los Angeles,34.05223,-118.24368,,,,,,
GMU,GMU_5708,2020-08-31 19:25:03,Some states (ahem LA and DE) also make it difficult by not showing members of a company.,-0.6390085816383362,Delaware,39.00039,-75.49992,,,,,,
GMU,GMU_5709,2020-08-31 19:25:03,"One case is my company: I’m the registered agent and the registered office is my house, but the business office is another member’s house, meanwhile (bc it’s Texas) all members are listed publicly.",-0.006857515778392553,Texas,31.25044,-99.25061,,,,,,
GMU,GMU_5712,2020-08-31 19:25:03,Kallaco is also violating Virginia law.,-0.7327455878257751,Virginia,37.54812,-77.44675,,,,,,
